$GPRMC,214103.151,A,4912.588840,N,01635.927160,E,,,261216,,E*4B
$GPRMB,A,,,,,,,,,,,,*27
$GPGGA,214103.151,4912.588840,N,01635.927160,E,1,7,0.9,250,M,,,,*25
$GPGSA,A,3,02,,,07,,09,24,26,,,,,1.6,1.6,1.0*3D
$GPGSV,2,1,08,02,43,088,38,04,42,145,00,05,11,291,00,07,60,043,35*71
$GPGSV,2,2,08,08,02,145,00,09,46,303,47,24,16,178,32,26,18,231,43*77
$PGRME,22.0,M,52.9,M,51.0,M*14
$GPRMC,214104.151,A,4912.588675,N,01635.926583,E,,,261216,,E*4C
$GPRMB,A,,,,,,,,,,,,*27
$GPGGA,214104.151,4912.588675,N,01635.926583,E,1,7,0.9,252,M,,,,*20
$GPGSA,A,3,02,,,07,,09,24,26,,,,,1.6,1.6,1.0*3D
$GPGSV,2,1,08,02,43,088,38,04,42,145,00,05,11,291,00,07,60,043,35*71
$GPGSV,2,2,08,08,02,145,00,09,46,303,47,24,16,178,32,26,18,231,43*77
$PGRME,22.0,M,52.9,M,51.0,M*14
$GPRMC,214105.151,A,4912.588509,N,01635.926005,E,,,261216,,E*4E
$GPRMB,A,,,,,,,,,,,,*27
$GPGGA,214105.151,4912.588509,N,01635.926005,E,1,7,0.9,249,M,,,,*28
$GPGSA,A,3,02,,,07,,09,24,26,,,,,1.6,1.6,1.0*3D
$GPGSV,2,1,08,02,43,088,38,04,42,145,00,05,11,291,00,07,60,043,35*71
$GPGSV,2,2,08,08,02,145,00,09,46,303,47,24,16,178,32,26,18,231,43*77
$PGRME,22.0,M,52.9,M,51.0,M*14
$GPRMC,214106.151,A,4912.588344,N,01635.925428,E,,,261216,,E*4A
$GPRMB,A,,,,,,,,,,,,*27
$GPGGA,214106.151,4912.588344,N,01635.925428,E,1,7,0.9,250,M,,,,*24
$GPGSA,A,3,02,,,07,,09,24,26,,,,,1.6,1.6,1.0*3D
$GPGSV,2,1,08,02,43,088,38,04,42,145,00,05,11,291,00,07,60,043,35*71
$GPGSV,2,2,08,08,02,145,00,09,46,303,47,24,16,178,32,26,18,231,43*77
$PGRME,22.0,M,52.9,M,51.0,M*14
$GPRMC,214107.151,A,4912.588179,N,01635.924850,E,,,261216,,E*45
$GPRMB,A,,,,,,,,,,,,*27
$GPGGA,214107.151,4912.588179,N,01635.924850,E,1,7,0.9,249,M,,,,*23
$GPGSA,A,3,02,,,07,,09,24,26,,,,,1.6,1.6,1.0*3D
$GPGSV,2,1,08,02,43,088,38,04,42,145,00,05,11,291,00,07,60,043,35*71
$GPGSV,2,2,08,08,02,145,00,09,46,303,47,24,16,178,32,26,18,231,43*77
$PGRME,22.0,M,52.9,M,51.0,M*14
$GPRMC,214108.151,A,4912.588014,N,01635.924273,E,,,261216,,E*4B
$GPRMB,A,,,,,,,,,,,,*27
$GPGGA,214108.151,4912.588014,N,01635.924273,E,1,7,0.9,251,M,,,,*24
$GPGSA,A,3,02,,,07,,09,24,26,,,,,1.6,1.6,1.0*3D
$GPGSV,2,1,08,02,43,088,38,04,42,145,00,05,11,291,00,07,60,043,35*71
$GPGSV,2,2,08,08,02,145,00,09,46,303,47,24,16,178,32,26,18,231,43*77
$PGRME,22.0,M,52.9,M,51.0,M*14
$GPRMC,214109.151,A,4912.587848,N,01635.923696,E,,,261216,,E*4C
$GPRMB,A,,,,,,,,,,,,*27
$GPGGA,214109.151,4912.587848,N,01635.923696,E,1,7,0.9,251,M,,,,*23
$GPGSA,A,3,02,,,07,,09,24,26,,,,,1.6,1.6,1.0*3D
$GPGSV,2,1,08,02,43,088,38,04,42,145,00,05,11,291,00,07,60,043,35*71
$GPGSV,2,2,08,08,02,145,00,09,46,303,47,24,16,178,32,26,18,231,43*77
$PGRME,22.0,M,52.9,M,51.0,M*14
$GPRMC,214110.151,A,4912.587683,N,01635.923118,E,,,261216,,E*4C
$GPRMB,A,,,,,,,,,,,,*27
$GPGGA,214110.151,4912.587683,N,01635.923118,E,1,7,0.9,249,M,,,,*2A
$GPGSA,A,3,02,,,07,,09,24,26,,,,,1.6,1.6,1.0*3D
$GPGSV,2,1,08,02,43,088,38,04,42,145,00,05,11,291,00,07,60,043,35*71
$GPGSV,2,2,08,08,02,145,00,09,46,303,47,24,16,178,32,26,18,231,43*77
$PGRME,22.0,M,52.9,M,51.0,M*14
$GPRMC,214111.151,A,4912.587518,N,01635.922541,E,,,261216,,E*45
$GPRMB,A,,,,,,,,,,,,*27
$GPGGA,214111.151,4912.587518,N,01635.922541,E,1,7,0.9,253,M,,,,*28
$GPGSA,A,3,02,,,07,,09,24,26,,,,,1.6,1.6,1.0*3D
$GPGSV,2,1,08,02,43,088,38,04,42,145,00,05,11,291,00,07,60,043,35*71
$GPGSV,2,2,08,08,02,145,00,09,46,303,47,24,16,178,32,26,18,231,43*77
$PGRME,22.0,M,52.9,M,51.0,M*14
$GPRMC,214112.151,A,4912.587352,N,01635.921963,E,,,261216,,E*41
$GPRMB,A,,,,,,,,,,,,*27
$GPGGA,214112.151,4912.587352,N,01635.921963,E,1,7,0.9,249,M,,,,*27
$GPGSA,A,3,02,,,07,,09,24,26,,,,,1.6,1.6,1.0*3D
$GPGSV,2,1,08,02,43,088,38,04,42,145,00,05,11,291,00,07,60,043,35*71
$GPGSV,2,2,08,08,02,145,00,09,46,303,47,24,16,178,32,26,18,231,43*77
$PGRME,22.0,M,52.9,M,51.0,M*14
$GPRMC,214113.151,A,4912.587187,N,01635.921386,E,,,261216,,E*4B
$GPRMB,A,,,,,,,,,,,,*27
$GPGGA,214113.151,4912.587187,N,01635.921386,E,1,7,0.9,249,M,,,,*2D
$GPGSA,A,3,02,,,07,,09,24,26,,,,,1.6,1.6,1.0*3D
$GPGSV,2,1,08,02,43,088,38,04,42,145,00,05,11,291,00,07,60,043,35*71
$GPGSV,2,2,08,08,02,145,00,09,46,303,47,24,16,178,32,26,18,231,43*77
$PGRME,22.0,M,52.9,M,51.0,M*14
$GPRMC,214114.151,A,4912.587022,N,01635.920808,E,,,261216,,E*4E
$GPRMB,A,,,,,,,,,,,,*27
$GPGGA,214114.151,4912.587022,N,01635.920808,E,1,7,0.9,252,M,,,,*22
$GPGSA,A,3,02,,,07,,09,24,26,,,,,1.6,1.6,1.0*3D
$GPGSV,2,1,08,02,43,088,38,04,42,145,00,05,11,291,00,07,60,043,35*71
$GPGSV,2,2,08,08,02,145,00,09,46,303,47,24,16,178,32,26,18,231,43*77
$PGRME,22.0,M,52.9,M,51.0,M*14
$GPRMC,214115.151,A,4912.586857,N,01635.920231,E,,,261216,,E*44
$GPRMB,A,,,,,,,,,,,,*27
$GPGGA,214115.151,4912.586857,N,01635.920231,E,1,7,0.9,250,M,,,,*2A
$GPGSA,A,3,02,,,07,,09,24,26,,,,,1.6,1.6,1.0*3D
$GPGSV,2,1,08,02,43,088,38,04,42,145,00,05,11,291,00,07,60,043,35*71
$GPGSV,2,2,08,08,02,145,00,09,46,303,47,24,16,178,32,26,18,231,43*77
$PGRME,22.0,M,52.9,M,51.0,M*14
$GPRMC,214116.151,A,4912.586691,N,01635.919654,E,,,261216,,E*4E
$GPRMB,A,,,,,,,,,,,,*27
$GPGGA,214116.151,4912.586691,N,01635.919654,E,1,7,0.9,251,M,,,,*21
$GPGSA,A,3,02,,,07,,09,24,26,,,,,1.6,1.6,1.0*3D
$GPGSV,2,1,08,02,43,088,38,04,42,145,00,05,11,291,00,07,60,043,35*71
$GPGSV,2,2,08,08,02,145,00,09,46,303,47,24,16,178,32,26,18,231,43*77
$PGRME,22.0,M,52.9,M,51.0,M*14
$GPRMC,214117.151,A,4912.586526,N,01635.919076,E,,,261216,,E*46
$GPRMB,A,,,,,,,,,,,,*27
$GPGGA,214117.151,4912.586526,N,01635.919076,E,1,7,0.9,249,M,,,,*20
$GPGSA,A,3,02,,,07,,09,24,26,,,,,1.6,1.6,1.0*3D
$GPGSV,2,1,08,02,43,088,38,04,42,145,00,05,11,291,00,07,60,043,35*71
$GPGSV,2,2,08,08,02,145,00,09,46,303,47,24,16,178,32,26,18,231,43*77
$PGRME,22.0,M,52.9,M,51.0,M*14
$GPRMC,214118.151,A,4912.586361,N,01635.918499,E,,,261216,,E*48
$GPRMB,A,,,,,,,,,,,,*27
$GPGGA,214118.151,4912.586361,N,01635.918499,E,1,7,0.9,251,M,,,,*27
$GPGSA,A,3,02,,,07,,09,24,26,,,,,1.6,1.6,1.0*3D
$GPGSV,2,1,08,02,43,088,38,04,42,145,00,05,11,291,00,07,60,043,35*71
$GPGSV,2,2,08,08,02,145,00,09,46,303,47,24,16,178,32,26,18,231,43*77
$PGRME,22.0,M,52.9,M,51.0,M*14
$GPRMC,214119.151,A,4912.586195,N,01635.917921,E,,,261216,,E*41
$GPRMB,A,,,,,,,,,,,,*27
$GPGGA,214119.151,4912.586195,N,01635.917921,E,1,7,0.9,253,M,,,,*2C
$GPGSA,A,3,02,,,07,,09,24,26,,,,,1.6,1.6,1.0*3D
$GPGSV,2,1,08,02,43,088,38,04,42,145,00,05,11,291,00,07,60,043,35*71
$GPGSV,2,2,08,08,02,145,00,09,46,303,47,24,16,178,32,26,18,231,43*77
$PGRME,22.0,M,52.9,M,51.0,M*14
$GPRMC,214120.151,A,4912.586030,N,01635.917344,E,,,261216,,E*4C
$GPRMB,A,,,,,,,,,,,,*27
$GPGGA,214120.151,4912.586030,N,01635.917344,E,1,7,0.9,252,M,,,,*20
$GPGSA,A,3,02,,,07,,09,24,26,,,,,1.6,1.6,1.0*3D
$GPGSV,2,1,08,02,43,088,38,04,42,145,00,05,11,291,00,07,60,043,35*71
$GPGSV,2,2,08,08,02,145,00,09,46,303,47,24,16,178,32,26,18,231,43*77
$PGRME,22.0,M,52.9,M,51.0,M*14
$GPRMC,214121.151,A,4912.585865,N,01635.916767,E,,,261216,,E*42
$GPRMB,A,,,,,,,,,,,,*27
$GPGGA,214121.151,4912.585865,N,01635.916767,E,1,7,0.9,252,M,,,,*2E
$GPGSA,A,3,02,,,07,,09,24,26,,,,,1.6,1.6,1.0*3D
$GPGSV,2,1,08,02,43,088,38,04,42,145,00,05,11,291,00,07,60,043,35*71
$GPGSV,2,2,08,08,02,145,00,09,46,303,47,24,16,178,32,26,18,231,43*77
$PGRME,22.0,M,52.9,M,51.0,M*14
$GPRMC,214122.151,A,4912.585700,N,01635.916189,E,,,261216,,E*4B
$GPRMB,A,,,,,,,,,,,,*27
$GPGGA,214122.151,4912.585700,N,01635.916189,E,1,7,0.9,253,M,,,,*26
$GPGSA,A,3,02,,,07,,09,24,26,,,,,1.6,1.6,1.0*3D
$GPGSV,2,1,08,02,43,088,38,04,42,145,00,05,11,291,00,07,60,043,35*71
$GPGSV,2,2,08,08,02,145,00,09,46,303,47,24,16,178,32,26,18,231,43*77
$PGRME,22.0,M,52.9,M,51.0,M*14
$GPRMC,214123.151,A,4912.585534,N,01635.915612,E,,,261216,,E*49
$GPRMB,A,,,,,,,,,,,,*27
$GPGGA,214123.151,4912.585534,N,01635.915612,E,1,7,0.9,251,M,,,,*26
$GPGSA,A,3,02,,,07,,09,24,26,,,,,1.6,1.6,1.0*3D
$GPGSV,2,1,08,02,43,088,38,04,42,145,00,05,11,291,00,07,60,043,35*71
$GPGSV,2,2,08,08,02,145,00,09,46,303,47,24,16,178,32,26,18,231,43*77
$PGRME,22.0,M,52.9,M,51.0,M*14
$GPRMC,214124.151,A,4912.585369,N,01635.915034,E,,,261216,,E*42
$GPRMB,A,,,,,,,,,,,,*27
$GPGGA,214124.151,4912.585369,N,01635.915034,E,1,7,0.9,249,M,,,,*24
$GPGSA,A,3,02,,,07,,09,24,26,,,,,1.6,1.6,1.0*3D
$GPGSV,2,1,08,02,43,088,38,04,42,145,00,05,11,291,00,07,60,043,35*71
$GPGSV,2,2,08,08,02,145,00,09,46,303,47,24,16,178,32,26,18,231,43*77
$PGRME,22.0,M,52.9,M,51.0,M*14
$GPRMC,214125.151,A,4912.585204,N,01635.914457,E,,,261216,,E*49
$GPRMB,A,,,,,,,,,,,,*27
$GPGGA,214125.151,4912.585204,N,01635.914457,E,1,7,0.9,250,M,,,,*27
$GPGSA,A,3,02,,,07,,09,24,26,,,,,1.6,1.6,1.0*3D
$GPGSV,2,1,08,02,43,088,38,04,42,145,00,05,11,291,00,07,60,043,35*71
$GPGSV,2,2,08,08,02,145,00,09,46,303,47,24,16,178,32,26,18,231,43*77
$PGRME,22.0,M,52.9,M,51.0,M*14
$GPRMC,214126.151,A,4912.585038,N,01635.913880,E,,,261216,,E*46
$GPRMB,A,,,,,,,,,,,,*27
$GPGGA,214126.151,4912.585038,N,01635.913880,E,1,7,0.9,252,M,,,,*2A
$GPGSA,A,3,02,,,07,,09,24,26,,,,,1.6,1.6,1.0*3D
$GPGSV,2,1,08,02,43,088,38,04,42,145,00,05,11,291,00,07,60,043,35*71
$GPGSV,2,2,08,08,02,145,00,09,46,303,47,24,16,178,32,26,18,231,43*77
$PGRME,22.0,M,52.9,M,51.0,M*14
$GPRMC,214127.151,A,4912.584873,N,01635.913302,E,,,261216,,E*40
$GPRMB,A,,,,,,,,,,,,*27
$GPGGA,214127.151,4912.584873,N,01635.913302,E,1,7,0.9,252,M,,,,*2C
$GPGSA,A,3,02,,,07,,09,24,26,,,,,1.6,1.6,1.0*3D
$GPGSV,2,1,08,02,43,088,38,04,42,145,00,05,11,291,00,07,60,043,35*71
$GPGSV,2,2,08,08,02,145,00,09,46,303,47,24,16,178,32,26,18,231,43*77
$PGRME,22.0,M,52.9,M,51.0,M*14
$GPRMC,214128.151,A,4912.584708,N,01635.912725,E,,,261216,,E*4C
$GPRMB,A,,,,,,,,,,,,*27
$GPGGA,214128.151,4912.584708,N,01635.912725,E,1,7,0.9,250,M,,,,*22
$GPGSA,A,3,02,,,07,,09,24,26,,,,,1.6,1.6,1.0*3D
$GPGSV,2,1,08,02,43,088,38,04,42,145,00,05,11,291,00,07,60,043,35*71
$GPGSV,2,2,08,08,02,145,00,09,46,303,47,24,16,178,32,26,18,231,43*77
$PGRME,22.0,M,52.9,M,51.0,M*14
$GPRMC,214129.151,A,4912.584543,N,01635.912147,E,,,261216,,E*42
$GPRMB,A,,,,,,,,,,,,*27
$GPGGA,214129.151,4912.584543,N,01635.912147,E,1,7,0.9,249,M,,,,*24
$GPGSA,A,3,02,,,07,,09,24,26,,,,,1.6,1.6,1.0*3D
$GPGSV,2,1,08,02,43,088,38,04,42,145,00,05,11,291,00,07,60,043,35*71
$GPGSV,2,2,08,08,02,145,00,09,46,303,47,24,16,178,32,26,18,231,43*77
$PGRME,22.0,M,52.9,M,51.0,M*14
$GPRMC,214130.151,A,4912.584377,N,01635.911570,E,,,261216,,E*48
$GPRMB,A,,,,,,,,,,,,*27
$GPGGA,214130.151,4912.584377,N,01635.911570,E,1,7,0.9,251,M,,,,*27
$GPGSA,A,3,02,,,07,,09,24,26,,,,,1.6,1.6,1.0*3D
$GPGSV,2,1,08,02,43,088,38,04,42,145,00,05,11,291,00,07,60,043,35*71
$GPGSV,2,2,08,08,02,145,00,09,46,303,47,24,16,178,32,26,18,231,43*77
$PGRME,22.0,M,52.9,M,51.0,M*14
$GPRMC,214131.151,A,4912.584212,N,01635.910993,E,,,261216,,E*4B
$GPRMB,A,,,,,,,,,,,,*27
$GPGGA,214131.151,4912.584212,N,01635.910993,E,1,7,0.9,251,M,,,,*24
$GPGSA,A,3,02,,,07,,09,24,26,,,,,1.6,1.6,1.0*3D
$GPGSV,2,1,08,02,43,088,38,04,42,145,00,05,11,291,00,07,60,043,35*71
$GPGSV,2,2,08,08,02,145,00,09,46,303,47,24,16,178,32,26,18,231,43*77
$PGRME,22.0,M,52.9,M,51.0,M*14
$GPRMC,214132.151,A,4912.584047,N,01635.910415,E,,,261216,,E*49
$GPRMB,A,,,,,,,,,,,,*27
$GPGGA,214132.151,4912.584047,N,01635.910415,E,1,7,0.9,252,M,,,,*25
$GPGSA,A,3,02,,,07,,09,24,26,,,,,1.6,1.6,1.0*3D
$GPGSV,2,1,08,02,43,088,38,04,42,145,00,05,11,291,00,07,60,043,35*71
$GPGSV,2,2,08,08,02,145,00,09,46,303,47,24,16,178,32,26,18,231,43*77
$PGRME,22.0,M,52.9,M,51.0,M*14
$GPRMC,214133.151,A,4912.583881,N,01635.909838,E,,,261216,,E*46
$GPRMB,A,,,,,,,,,,,,*27
$GPGGA,214133.151,4912.583881,N,01635.909838,E,1,7,0.9,251,M,,,,*29
$GPGSA,A,3,02,,,07,,09,24,26,,,,,1.6,1.6,1.0*3D
$GPGSV,2,1,08,02,43,088,38,04,42,145,00,05,11,291,00,07,60,043,35*71
$GPGSV,2,2,08,08,02,145,00,09,46,303,47,24,16,178,32,26,18,231,43*77
$PGRME,22.0,M,52.9,M,51.0,M*14
$GPRMC,214134.151,A,4912.583716,N,01635.909260,E,,,261216,,E*47
$GPRMB,A,,,,,,,,,,,,*27
$GPGGA,214134.151,4912.583716,N,01635.909260,E,1,7,0.9,250,M,,,,*29
$GPGSA,A,3,02,,,07,,09,24,26,,,,,1.6,1.6,1.0*3D
$GPGSV,2,1,08,02,43,088,38,04,42,145,00,05,11,291,00,07,60,043,35*71
$GPGSV,2,2,08,08,02,145,00,09,46,303,47,24,16,178,32,26,18,231,43*77
$PGRME,22.0,M,52.9,M,51.0,M*14
$GPRMC,214135.151,A,4912.583551,N,01635.908683,E,,,261216,,E*4F
$GPRMB,A,,,,,,,,,,,,*27
$GPGGA,214135.151,4912.583551,N,01635.908683,E,1,7,0.9,251,M,,,,*20
$GPGSA,A,3,02,,,07,,09,24,26,,,,,1.6,1.6,1.0*3D
$GPGSV,2,1,08,02,43,088,38,04,42,145,00,05,11,291,00,07,60,043,35*71
$GPGSV,2,2,08,08,02,145,00,09,46,303,47,24,16,178,32,26,18,231,43*77
$PGRME,22.0,M,52.9,M,51.0,M*14
$GPRMC,214136.151,A,4912.583386,N,01635.908105,E,,,261216,,E*49
$GPRMB,A,,,,,,,,,,,,*27
$GPGGA,214136.151,4912.583386,N,01635.908105,E,1,7,0.9,253,M,,,,*24
$GPGSA,A,3,02,,,07,,09,24,26,,,,,1.6,1.6,1.0*3D
$GPGSV,2,1,08,02,43,088,38,04,42,145,00,05,11,291,00,07,60,043,35*71
$GPGSV,2,2,08,08,02,145,00,09,46,303,47,24,16,178,32,26,18,231,43*77
$PGRME,22.0,M,52.9,M,51.0,M*14
$GPRMC,214137.151,A,4912.583220,N,01635.907528,E,,,261216,,E*41
$GPRMB,A,,,,,,,,,,,,*27
$GPGGA,214137.151,4912.583220,N,01635.907528,E,1,7,0.9,253,M,,,,*2C
$GPGSA,A,3,02,,,07,,09,24,26,,,,,1.6,1.6,1.0*3D
$GPGSV,2,1,08,02,43,088,38,04,42,145,00,05,11,291,00,07,60,043,35*71
$GPGSV,2,2,08,08,02,145,00,09,46,303,47,24,16,178,32,26,18,231,43*77
$PGRME,22.0,M,52.9,M,51.0,M*14
$GPRMC,214138.151,A,4912.583055,N,01635.906951,E,,,261216,,E*4D
$GPRMB,A,,,,,,,,,,,,*27
$GPGGA,214138.151,4912.583055,N,01635.906951,E,1,7,0.9,253,M,,,,*20
$GPGSA,A,3,02,,,07,,09,24,26,,,,,1.6,1.6,1.0*3D
$GPGSV,2,1,08,02,43,088,38,04,42,145,00,05,11,291,00,07,60,043,35*71
$GPGSV,2,2,08,08,02,145,00,09,46,303,47,24,16,178,32,26,18,231,43*77
$PGRME,22.0,M,52.9,M,51.0,M*14
$GPRMC,214139.151,A,4912.582890,N,01635.906373,E,,,261216,,E*46
$GPRMB,A,,,,,,,,,,,,*27
$GPGGA,214139.151,4912.582890,N,01635.906373,E,1,7,0.9,250,M,,,,*28
$GPGSA,A,3,02,,,07,,09,24,26,,,,,1.6,1.6,1.0*3D
$GPGSV,2,1,08,02,43,088,38,04,42,145,00,05,11,291,00,07,60,043,35*71
$GPGSV,2,2,08,08,02,145,00,09,46,303,47,24,16,178,32,26,18,231,43*77
$PGRME,22.0,M,52.9,M,51.0,M*14
$GPRMC,214140.151,A,4912.582724,N,01635.905796,E,,,261216,,E*44
$GPRMB,A,,,,,,,,,,,,*27
$GPGGA,214140.151,4912.582724,N,01635.905796,E,1,7,0.9,252,M,,,,*28
$GPGSA,A,3,02,,,07,,09,24,26,,,,,1.6,1.6,1.0*3D
$GPGSV,2,1,08,02,43,088,38,04,42,145,00,05,11,291,00,07,60,043,35*71
$GPGSV,2,2,08,08,02,145,00,09,46,303,47,24,16,178,32,26,18,231,43*77
$PGRME,22.0,M,52.9,M,51.0,M*14
$GPRMC,214141.151,A,4912.582559,N,01635.905218,E,,,261216,,E*4E
$GPRMB,A,,,,,,,,,,,,*27
$GPGGA,214141.151,4912.582559,N,01635.905218,E,1,7,0.9,252,M,,,,*22
$GPGSA,A,3,02,,,07,,09,24,26,,,,,1.6,1.6,1.0*3D
$GPGSV,2,1,08,02,43,088,38,04,42,145,00,05,11,291,00,07,60,043,35*71
$GPGSV,2,2,08,08,02,145,00,09,46,303,47,24,16,178,32,26,18,231,43*77
$PGRME,22.0,M,52.9,M,51.0,M*14
$GPRMC,214142.151,A,4912.582394,N,01635.904641,E,,,261216,,E*43
$GPRMB,A,,,,,,,,,,,,*27
$GPGGA,214142.151,4912.582394,N,01635.904641,E,1,7,0.9,252,M,,,,*2F
$GPGSA,A,3,02,,,07,,09,24,26,,,,,1.6,1.6,1.0*3D
$GPGSV,2,1,08,02,43,088,38,04,42,145,00,05,11,291,00,07,60,043,35*71
$GPGSV,2,2,08,08,02,145,00,09,46,303,47,24,16,178,32,26,18,231,43*77
$PGRME,22.0,M,52.9,M,51.0,M*14
$GPRMC,214143.151,A,4912.582229,N,01635.904064,E,,,261216,,E*44
$GPRMB,A,,,,,,,,,,,,*27
$GPGGA,214143.151,4912.582229,N,01635.904064,E,1,7,0.9,249,M,,,,*22
$GPGSA,A,3,02,,,07,,09,24,26,,,,,1.6,1.6,1.0*3D
$GPGSV,2,1,08,02,43,088,38,04,42,145,00,05,11,291,00,07,60,043,35*71
$GPGSV,2,2,08,08,02,145,00,09,46,303,47,24,16,178,32,26,18,231,43*77
$PGRME,22.0,M,52.9,M,51.0,M*14
$GPRMC,214144.151,A,4912.582063,N,01635.903486,E,,,261216,,E*40
$GPRMB,A,,,,,,,,,,,,*27
$GPGGA,214144.151,4912.582063,N,01635.903486,E,1,7,0.9,251,M,,,,*2F
$GPGSA,A,3,02,,,07,,09,24,26,,,,,1.6,1.6,1.0*3D
$GPGSV,2,1,08,02,43,088,38,04,42,145,00,05,11,291,00,07,60,043,35*71
$GPGSV,2,2,08,08,02,145,00,09,46,303,47,24,16,178,32,26,18,231,43*77
$PGRME,22.0,M,52.9,M,51.0,M*14
$GPRMC,214145.151,A,4912.581898,N,01635.902909,E,,,261216,,E*45
$GPRMB,A,,,,,,,,,,,,*27
$GPGGA,214145.151,4912.581898,N,01635.902909,E,1,7,0.9,253,M,,,,*28
$GPGSA,A,3,02,,,07,,09,24,26,,,,,1.6,1.6,1.0*3D
$GPGSV,2,1,08,02,43,088,38,04,42,145,00,05,11,291,00,07,60,043,35*71
$GPGSV,2,2,08,08,02,145,00,09,46,303,47,24,16,178,32,26,18,231,43*77
$PGRME,22.0,M,52.9,M,51.0,M*14
$GPRMC,214146.151,A,4912.581733,N,01635.902331,E,,,261216,,E*49
$GPRMB,A,,,,,,,,,,,,*27
$GPGGA,214146.151,4912.581733,N,01635.902331,E,1,7,0.9,252,M,,,,*25
$GPGSA,A,3,02,,,07,,09,24,26,,,,,1.6,1.6,1.0*3D
$GPGSV,2,1,08,02,43,088,38,04,42,145,00,05,11,291,00,07,60,043,35*71
$GPGSV,2,2,08,08,02,145,00,09,46,303,47,24,16,178,32,26,18,231,43*77
$PGRME,22.0,M,52.9,M,51.0,M*14
$GPRMC,214147.151,A,4912.581567,N,01635.901754,E,,,261216,,E*4F
$GPRMB,A,,,,,,,,,,,,*27
$GPGGA,214147.151,4912.581567,N,01635.901754,E,1,7,0.9,249,M,,,,*29
$GPGSA,A,3,02,,,07,,09,24,26,,,,,1.6,1.6,1.0*3D
$GPGSV,2,1,08,02,43,088,38,04,42,145,00,05,11,291,00,07,60,043,35*71
$GPGSV,2,2,08,08,02,145,00,09,46,303,47,24,16,178,32,26,18,231,43*77
$PGRME,22.0,M,52.9,M,51.0,M*14
$GPRMC,214148.151,A,4912.581402,N,01635.901177,E,,,261216,,E*45
$GPRMB,A,,,,,,,,,,,,*27
$GPGGA,214148.151,4912.581402,N,01635.901177,E,1,7,0.9,249,M,,,,*23
$GPGSA,A,3,02,,,07,,09,24,26,,,,,1.6,1.6,1.0*3D
$GPGSV,2,1,08,02,43,088,38,04,42,145,00,05,11,291,00,07,60,043,35*71
$GPGSV,2,2,08,08,02,145,00,09,46,303,47,24,16,178,32,26,18,231,43*77
$PGRME,22.0,M,52.9,M,51.0,M*14
$GPRMC,214149.151,A,4912.581237,N,01635.900599,E,,,261216,,E*41
$GPRMB,A,,,,,,,,,,,,*27
$GPGGA,214149.151,4912.581237,N,01635.900599,E,1,7,0.9,251,M,,,,*2E
$GPGSA,A,3,02,,,07,,09,24,26,,,,,1.6,1.6,1.0*3D
$GPGSV,2,1,08,02,43,088,38,04,42,145,00,05,11,291,00,07,60,043,35*71
$GPGSV,2,2,08,08,02,145,00,09,46,303,47,24,16,178,32,26,18,231,43*77
$PGRME,22.0,M,52.9,M,51.0,M*14
$GPRMC,214150.151,A,4912.581072,N,01635.900022,E,,,261216,,E*4F
$GPRMB,A,,,,,,,,,,,,*27
$GPGGA,214150.151,4912.581072,N,01635.900022,E,1,7,0.9,252,M,,,,*23
$GPGSA,A,3,02,,,07,,09,24,26,,,,,1.6,1.6,1.0*3D
$GPGSV,2,1,08,02,43,088,38,04,42,145,00,05,11,291,00,07,60,043,35*71
$GPGSV,2,2,08,08,02,145,00,09,46,303,47,24,16,178,32,26,18,231,43*77
$PGRME,22.0,M,52.9,M,51.0,M*14
$GPRMC,214151.151,A,4912.580906,N,01635.899444,E,,,261216,,E*40
$GPRMB,A,,,,,,,,,,,,*27
$GPGGA,214151.151,4912.580906,N,01635.899444,E,1,7,0.9,250,M,,,,*2E
$GPGSA,A,3,02,,,07,,09,24,26,,,,,1.6,1.6,1.0*3D
$GPGSV,2,1,08,02,43,088,38,04,42,145,00,05,11,291,00,07,60,043,35*71
$GPGSV,2,2,08,08,02,145,00,09,46,303,47,24,16,178,32,26,18,231,43*77
$PGRME,22.0,M,52.9,M,51.0,M*14
$GPRMC,214152.151,A,4912.580741,N,01635.898867,E,,,261216,,E*42
$GPRMB,A,,,,,,,,,,,,*27
$GPGGA,214152.151,4912.580741,N,01635.898867,E,1,7,0.9,252,M,,,,*2E
$GPGSA,A,3,02,,,07,,09,24,26,,,,,1.6,1.6,1.0*3D
$GPGSV,2,1,08,02,43,088,38,04,42,145,00,05,11,291,00,07,60,043,35*71
$GPGSV,2,2,08,08,02,145,00,09,46,303,47,24,16,178,32,26,18,231,43*77
$PGRME,22.0,M,52.9,M,51.0,M*14
$GPRMC,214153.151,A,4912.580576,N,01635.898290,E,,,261216,,E*47
$GPRMB,A,,,,,,,,,,,,*27
$GPGGA,214153.151,4912.580576,N,01635.898290,E,1,7,0.9,253,M,,,,*2A
$GPGSA,A,3,02,,,07,,09,24,26,,,,,1.6,1.6,1.0*3D
$GPGSV,2,1,08,02,43,088,38,04,42,145,00,05,11,291,00,07,60,043,35*71
$GPGSV,2,2,08,08,02,145,00,09,46,303,47,24,16,178,32,26,18,231,43*77
$PGRME,22.0,M,52.9,M,51.0,M*14
$GPRMC,214154.151,A,4912.580410,N,01635.897712,E,,,261216,,E*41
$GPRMB,A,,,,,,,,,,,,*27
$GPGGA,214154.151,4912.580410,N,01635.897712,E,1,7,0.9,250,M,,,,*2F
$GPGSA,A,3,02,,,07,,09,24,26,,,,,1.6,1.6,1.0*3D
$GPGSV,2,1,08,02,43,088,38,04,42,145,00,05,11,291,00,07,60,043,35*71
$GPGSV,2,2,08,08,02,145,00,09,46,303,47,24,16,178,32,26,18,231,43*77
$PGRME,22.0,M,52.9,M,51.0,M*14
$GPRMC,214155.151,A,4912.580245,N,01635.897135,E,,,261216,,E*45
$GPRMB,A,,,,,,,,,,,,*27
$GPGGA,214155.151,4912.580245,N,01635.897135,E,1,7,0.9,250,M,,,,*2B
$GPGSA,A,3,02,,,07,,09,24,26,,,,,1.6,1.6,1.0*3D
$GPGSV,2,1,08,02,43,088,38,04,42,145,00,05,11,291,00,07,60,043,35*71
$GPGSV,2,2,08,08,02,145,00,09,46,303,47,24,16,178,32,26,18,231,43*77
$PGRME,22.0,M,52.9,M,51.0,M*14
$GPRMC,214156.151,A,4912.580080,N,01635.896557,E,,,261216,,E*4C
$GPRMB,A,,,,,,,,,,,,*27
$GPGGA,214156.151,4912.580080,N,01635.896557,E,1,7,0.9,249,M,,,,*2A
$GPGSA,A,3,02,,,07,,09,24,26,,,,,1.6,1.6,1.0*3D
$GPGSV,2,1,08,02,43,088,38,04,42,145,00,05,11,291,00,07,60,043,35*71
$GPGSV,2,2,08,08,02,145,00,09,46,303,47,24,16,178,32,26,18,231,43*77
$PGRME,22.0,M,52.9,M,51.0,M*14
$GPRMC,214157.151,A,4912.579915,N,01635.895980,E,,,261216,,E*4B
$GPRMB,A,,,,,,,,,,,,*27
$GPGGA,214157.151,4912.579915,N,01635.895980,E,1,7,0.9,249,M,,,,*2D
$GPGSA,A,3,02,,,07,,09,24,26,,,,,1.6,1.6,1.0*3D
$GPGSV,2,1,08,02,43,088,38,04,42,145,00,05,11,291,00,07,60,043,35*71
$GPGSV,2,2,08,08,02,145,00,09,46,303,47,24,16,178,32,26,18,231,43*77
$PGRME,22.0,M,52.9,M,51.0,M*14
$GPRMC,214158.151,A,4912.579749,N,01635.895402,E,,,261216,,E*44
$GPRMB,A,,,,,,,,,,,,*27
$GPGGA,214158.151,4912.579749,N,01635.895402,E,1,7,0.9,252,M,,,,*28
$GPGSA,A,3,02,,,07,,09,24,26,,,,,1.6,1.6,1.0*3D
$GPGSV,2,1,08,02,43,088,38,04,42,145,00,05,11,291,00,07,60,043,35*71
$GPGSV,2,2,08,08,02,145,00,09,46,303,47,24,16,178,32,26,18,231,43*77
$PGRME,22.0,M,52.9,M,51.0,M*14
$GPRMC,214159.151,A,4912.579680,N,01635.894808,E,,,261216,,E*46
$GPRMB,A,,,,,,,,,,,,*27
$GPGGA,214159.151,4912.579680,N,01635.894808,E,1,7,0.9,253,M,,,,*2B
$GPGSA,A,3,02,,,07,,09,24,26,,,,,1.6,1.6,1.0*3D
$GPGSV,2,1,08,02,43,088,38,04,42,145,00,05,11,291,00,07,60,043,35*71
$GPGSV,2,2,08,08,02,145,00,09,46,303,47,24,16,178,32,26,18,231,43*77
$PGRME,22.0,M,52.9,M,51.0,M*14
$GPRMC,214200.151,A,4912.579630,N,01635.894209,E,,,261216,,E*49
$GPRMB,A,,,,,,,,,,,,*27
$GPGGA,214200.151,4912.579630,N,01635.894209,E,1,7,0.9,249,M,,,,*2F
$GPGSA,A,3,02,,,07,,09,24,26,,,,,1.6,1.6,1.0*3D
$GPGSV,2,1,08,02,43,088,38,04,42,145,00,05,11,291,00,07,60,043,35*71
$GPGSV,2,2,08,08,02,145,00,09,46,303,47,24,16,178,32,26,18,231,43*77
$PGRME,22.0,M,52.9,M,51.0,M*14
$GPRMC,214201.151,A,4912.579581,N,01635.893610,E,,,261216,,E*4A
$GPRMB,A,,,,,,,,,,,,*27
$GPGGA,214201.151,4912.579581,N,01635.893610,E,1,7,0.9,253,M,,,,*27
$GPGSA,A,3,02,,,07,,09,24,26,,,,,1.6,1.6,1.0*3D
$GPGSV,2,1,08,02,43,088,38,04,42,145,00,05,11,291,00,07,60,043,35*71
$GPGSV,2,2,08,08,02,145,00,09,46,303,47,24,16,178,32,26,18,231,43*77
$PGRME,22.0,M,52.9,M,51.0,M*14
$GPRMC,214202.151,A,4912.579532,N,01635.893012,E,,,261216,,E*45
$GPRMB,A,,,,,,,,,,,,*27
$GPGGA,214202.151,4912.579532,N,01635.893012,E,1,7,0.9,253,M,,,,*28
$GPGSA,A,3,02,,,07,,09,24,26,,,,,1.6,1.6,1.0*3D
$GPGSV,2,1,08,02,43,088,38,04,42,145,00,05,11,291,00,07,60,043,35*71
$GPGSV,2,2,08,08,02,145,00,09,46,303,47,24,16,178,32,26,18,231,43*77
$PGRME,22.0,M,52.9,M,51.0,M*14
$GPRMC,214203.151,A,4912.579483,N,01635.892413,E,,,261216,,E*4B
$GPRMB,A,,,,,,,,,,,,*27
$GPGGA,214203.151,4912.579483,N,01635.892413,E,1,7,0.9,250,M,,,,*25
$GPGSA,A,3,02,,,07,,09,24,26,,,,,1.6,1.6,1.0*3D
$GPGSV,2,1,08,02,43,088,38,04,42,145,00,05,11,291,00,07,60,043,35*71
$GPGSV,2,2,08,08,02,145,00,09,46,303,47,24,16,178,32,26,18,231,43*77
$PGRME,22.0,M,52.9,M,51.0,M*14
$GPRMC,214204.151,A,4912.579434,N,01635.891815,E,,,261216,,E*49
$GPRMB,A,,,,,,,,,,,,*27
$GPGGA,214204.151,4912.579434,N,01635.891815,E,1,7,0.9,253,M,,,,*24
$GPGSA,A,3,02,,,07,,09,24,26,,,,,1.6,1.6,1.0*3D
$GPGSV,2,1,08,02,43,088,38,04,42,145,00,05,11,291,00,07,60,043,35*71
$GPGSV,2,2,08,08,02,145,00,09,46,303,47,24,16,178,32,26,18,231,43*77
$PGRME,22.0,M,52.9,M,51.0,M*14
$GPRMC,214205.151,A,4912.579385,N,01635.891216,E,,,261216,,E*4C
$GPRMB,A,,,,,,,,,,,,*27
$GPGGA,214205.151,4912.579385,N,01635.891216,E,1,7,0.9,253,M,,,,*21
$GPGSA,A,3,02,,,07,,09,24,26,,,,,1.6,1.6,1.0*3D
$GPGSV,2,1,08,02,43,088,38,04,42,145,00,05,11,291,00,07,60,043,35*71
$GPGSV,2,2,08,08,02,145,00,09,46,303,47,24,16,178,32,26,18,231,43*77
$PGRME,22.0,M,52.9,M,51.0,M*14
$GPRMC,214206.151,A,4912.579336,N,01635.890618,E,,,261216,,E*4C
$GPRMB,A,,,,,,,,,,,,*27
$GPGGA,214206.151,4912.579336,N,01635.890618,E,1,7,0.9,249,M,,,,*2A
$GPGSA,A,3,02,,,07,,09,24,26,,,,,1.6,1.6,1.0*3D
$GPGSV,2,1,08,02,43,088,38,04,42,145,00,05,11,291,00,07,60,043,35*71
$GPGSV,2,2,08,08,02,145,00,09,46,303,47,24,16,178,32,26,18,231,43*77
$PGRME,22.0,M,52.9,M,51.0,M*14
$GPRMC,214207.151,A,4912.579286,N,01635.890019,E,,,261216,,E*40
$GPRMB,A,,,,,,,,,,,,*27
$GPGGA,214207.151,4912.579286,N,01635.890019,E,1,7,0.9,251,M,,,,*2F
$GPGSA,A,3,02,,,07,,09,24,26,,,,,1.6,1.6,1.0*3D
$GPGSV,2,1,08,02,43,088,38,04,42,145,00,05,11,291,00,07,60,043,35*71
$GPGSV,2,2,08,08,02,145,00,09,46,303,47,24,16,178,32,26,18,231,43*77
$PGRME,22.0,M,52.9,M,51.0,M*14
$GPRMC,214208.151,A,4912.579237,N,01635.889420,E,,,261216,,E*43
$GPRMB,A,,,,,,,,,,,,*27
$GPGGA,214208.151,4912.579237,N,01635.889420,E,1,7,0.9,251,M,,,,*2C
$GPGSA,A,3,02,,,07,,09,24,26,,,,,1.6,1.6,1.0*3D
$GPGSV,2,1,08,02,43,088,38,04,42,145,00,05,11,291,00,07,60,043,35*71
$GPGSV,2,2,08,08,02,145,00,09,46,303,47,24,16,178,32,26,18,231,43*77
$PGRME,22.0,M,52.9,M,51.0,M*14
$GPRMC,214209.151,A,4912.579188,N,01635.888822,E,,,261216,,E*4A
$GPRMB,A,,,,,,,,,,,,*27
$GPGGA,214209.151,4912.579188,N,01635.888822,E,1,7,0.9,252,M,,,,*26
$GPGSA,A,3,02,,,07,,09,24,26,,,,,1.6,1.6,1.0*3D
$GPGSV,2,1,08,02,43,088,38,04,42,145,00,05,11,291,00,07,60,043,35*71
$GPGSV,2,2,08,08,02,145,00,09,46,303,47,24,16,178,32,26,18,231,43*77
$PGRME,22.0,M,52.9,M,51.0,M*14
$GPRMC,214210.151,A,4912.579139,N,01635.888223,E,,,261216,,E*43
$GPRMB,A,,,,,,,,,,,,*27
$GPGGA,214210.151,4912.579139,N,01635.888223,E,1,7,0.9,251,M,,,,*2C
$GPGSA,A,3,02,,,07,,09,24,26,,,,,1.6,1.6,1.0*3D
$GPGSV,2,1,08,02,43,088,38,04,42,145,00,05,11,291,00,07,60,043,35*71
$GPGSV,2,2,08,08,02,145,00,09,46,303,47,24,16,178,32,26,18,231,43*77
$PGRME,22.0,M,52.9,M,51.0,M*14
$GPRMC,214211.151,A,4912.579090,N,01635.887625,E,,,261216,,E*4D
$GPRMB,A,,,,,,,,,,,,*27
$GPGGA,214211.151,4912.579090,N,01635.887625,E,1,7,0.9,253,M,,,,*20
$GPGSA,A,3,02,,,07,,09,24,26,,,,,1.6,1.6,1.0*3D
$GPGSV,2,1,08,02,43,088,38,04,42,145,00,05,11,291,00,07,60,043,35*71
$GPGSV,2,2,08,08,02,145,00,09,46,303,47,24,16,178,32,26,18,231,43*77
$PGRME,22.0,M,52.9,M,51.0,M*14
$GPRMC,214212.151,A,4912.579244,N,01635.887114,E,,,261216,,E*40
$GPRMB,A,,,,,,,,,,,,*27
$GPGGA,214212.151,4912.579244,N,01635.887114,E,1,7,0.9,253,M,,,,*2D
$GPGSA,A,3,02,,,07,,09,24,26,,,,,1.6,1.6,1.0*3D
$GPGSV,2,1,08,02,43,088,38,04,42,145,00,05,11,291,00,07,60,043,35*71
$GPGSV,2,2,08,08,02,145,00,09,46,303,47,24,16,178,32,26,18,231,43*77
$PGRME,22.0,M,52.9,M,51.0,M*14
$GPRMC,214213.151,A,4912.579714,N,01635.886740,E,,,261216,,E*47
$GPRMB,A,,,,,,,,,,,,*27
$GPGGA,214213.151,4912.579714,N,01635.886740,E,1,7,0.9,251,M,,,,*28
$GPGSA,A,3,02,,,07,,09,24,26,,,,,1.6,1.6,1.0*3D
$GPGSV,2,1,08,02,43,088,38,04,42,145,00,05,11,291,00,07,60,043,35*71
$GPGSV,2,2,08,08,02,145,00,09,46,303,47,24,16,178,32,26,18,231,43*77
$PGRME,22.0,M,52.9,M,51.0,M*14
$GPRMC,214214.151,A,4912.580184,N,01635.886366,E,,,261216,,E*49
$GPRMB,A,,,,,,,,,,,,*27
$GPGGA,214214.151,4912.580184,N,01635.886366,E,1,7,0.9,252,M,,,,*25
$GPGSA,A,3,02,,,07,,09,24,26,,,,,1.6,1.6,1.0*3D
$GPGSV,2,1,08,02,43,088,38,04,42,145,00,05,11,291,00,07,60,043,35*71
$GPGSV,2,2,08,08,02,145,00,09,46,303,47,24,16,178,32,26,18,231,43*77
$PGRME,22.0,M,52.9,M,51.0,M*14
$GPRMC,214215.151,A,4912.580654,N,01635.885992,E,,,261216,,E*40
$GPRMB,A,,,,,,,,,,,,*27
$GPGGA,214215.151,4912.580654,N,01635.885992,E,1,7,0.9,249,M,,,,*26
$GPGSA,A,3,02,,,07,,09,24,26,,,,,1.6,1.6,1.0*3D
$GPGSV,2,1,08,02,43,088,38,04,42,145,00,05,11,291,00,07,60,043,35*71
$GPGSV,2,2,08,08,02,145,00,09,46,303,47,24,16,178,32,26,18,231,43*77
$PGRME,22.0,M,52.9,M,51.0,M*14
$GPRMC,214216.151,A,4912.581124,N,01635.885618,E,,,261216,,E*4F
$GPRMB,A,,,,,,,,,,,,*27
$GPGGA,214216.151,4912.581124,N,01635.885618,E,1,7,0.9,251,M,,,,*20
$GPGSA,A,3,02,,,07,,09,24,26,,,,,1.6,1.6,1.0*3D
$GPGSV,2,1,08,02,43,088,38,04,42,145,00,05,11,291,00,07,60,043,35*71
$GPGSV,2,2,08,08,02,145,00,09,46,303,47,24,16,178,32,26,18,231,43*77
$PGRME,22.0,M,52.9,M,51.0,M*14
$GPRMC,214217.151,A,4912.581594,N,01635.885244,E,,,261216,,E*4C
$GPRMB,A,,,,,,,,,,,,*27
$GPGGA,214217.151,4912.581594,N,01635.885244,E,1,7,0.9,250,M,,,,*22
$GPGSA,A,3,02,,,07,,09,24,26,,,,,1.6,1.6,1.0*3D
$GPGSV,2,1,08,02,43,088,38,04,42,145,00,05,11,291,00,07,60,043,35*71
$GPGSV,2,2,08,08,02,145,00,09,46,303,47,24,16,178,32,26,18,231,43*77
$PGRME,22.0,M,52.9,M,51.0,M*14
$GPRMC,214218.151,A,4912.582064,N,01635.884871,E,,,261216,,E*47
$GPRMB,A,,,,,,,,,,,,*27
$GPGGA,214218.151,4912.582064,N,01635.884871,E,1,7,0.9,249,M,,,,*21
$GPGSA,A,3,02,,,07,,09,24,26,,,,,1.6,1.6,1.0*3D
$GPGSV,2,1,08,02,43,088,38,04,42,145,00,05,11,291,00,07,60,043,35*71
$GPGSV,2,2,08,08,02,145,00,09,46,303,47,24,16,178,32,26,18,231,43*77
$PGRME,22.0,M,52.9,M,51.0,M*14
$GPRMC,214219.151,A,4912.582534,N,01635.884497,E,,,261216,,E*42
$GPRMB,A,,,,,,,,,,,,*27
$GPGGA,214219.151,4912.582534,N,01635.884497,E,1,7,0.9,250,M,,,,*2C
$GPGSA,A,3,02,,,07,,09,24,26,,,,,1.6,1.6,1.0*3D
$GPGSV,2,1,08,02,43,088,38,04,42,145,00,05,11,291,00,07,60,043,35*71
$GPGSV,2,2,08,08,02,145,00,09,46,303,47,24,16,178,32,26,18,231,43*77
$PGRME,22.0,M,52.9,M,51.0,M*14
$GPRMC,214220.151,A,4912.583004,N,01635.884123,E,,,261216,,E*45
$GPRMB,A,,,,,,,,,,,,*27
$GPGGA,214220.151,4912.583004,N,01635.884123,E,1,7,0.9,250,M,,,,*2B
$GPGSA,A,3,02,,,07,,09,24,26,,,,,1.6,1.6,1.0*3D
$GPGSV,2,1,08,02,43,088,38,04,42,145,00,05,11,291,00,07,60,043,35*71
$GPGSV,2,2,08,08,02,145,00,09,46,303,47,24,16,178,32,26,18,231,43*77
$PGRME,22.0,M,52.9,M,51.0,M*14
$GPRMC,214221.151,A,4912.583474,N,01635.883749,E,,,261216,,E*4A
$GPRMB,A,,,,,,,,,,,,*27
$GPGGA,214221.151,4912.583474,N,01635.883749,E,1,7,0.9,253,M,,,,*27
$GPGSA,A,3,02,,,07,,09,24,26,,,,,1.6,1.6,1.0*3D
$GPGSV,2,1,08,02,43,088,38,04,42,145,00,05,11,291,00,07,60,043,35*71
$GPGSV,2,2,08,08,02,145,00,09,46,303,47,24,16,178,32,26,18,231,43*77
$PGRME,22.0,M,52.9,M,51.0,M*14
$GPRMC,214222.151,A,4912.583944,N,01635.883375,E,,,261216,,E*4C
$GPRMB,A,,,,,,,,,,,,*27
$GPGGA,214222.151,4912.583944,N,01635.883375,E,1,7,0.9,251,M,,,,*23
$GPGSA,A,3,02,,,07,,09,24,26,,,,,1.6,1.6,1.0*3D
$GPGSV,2,1,08,02,43,088,38,04,42,145,00,05,11,291,00,07,60,043,35*71
$GPGSV,2,2,08,08,02,145,00,09,46,303,47,24,16,178,32,26,18,231,43*77
$PGRME,22.0,M,52.9,M,51.0,M*14
$GPRMC,214223.151,A,4912.584423,N,01635.883015,E,,,261216,,E*43
$GPRMB,A,,,,,,,,,,,,*27
$GPGGA,214223.151,4912.584423,N,01635.883015,E,1,7,0.9,249,M,,,,*25
$GPGSA,A,3,02,,,07,,09,24,26,,,,,1.6,1.6,1.0*3D
$GPGSV,2,1,08,02,43,088,38,04,42,145,00,05,11,291,00,07,60,043,35*71
$GPGSV,2,2,08,08,02,145,00,09,46,303,47,24,16,178,32,26,18,231,43*77
$PGRME,22.0,M,52.9,M,51.0,M*14
$GPRMC,214224.151,A,4912.584951,N,01635.882728,E,,,261216,,E*44
$GPRMB,A,,,,,,,,,,,,*27
$GPGGA,214224.151,4912.584951,N,01635.882728,E,1,7,0.9,251,M,,,,*2B
$GPGSA,A,3,02,,,07,,09,24,26,,,,,1.6,1.6,1.0*3D
$GPGSV,2,1,08,02,43,088,38,04,42,145,00,05,11,291,00,07,60,043,35*71
$GPGSV,2,2,08,08,02,145,00,09,46,303,47,24,16,178,32,26,18,231,43*77
$PGRME,22.0,M,52.9,M,51.0,M*14
$GPRMC,214225.151,A,4912.585478,N,01635.882441,E,,,261216,,E*4E
$GPRMB,A,,,,,,,,,,,,*27
$GPGGA,214225.151,4912.585478,N,01635.882441,E,1,7,0.9,253,M,,,,*23
$GPGSA,A,3,02,,,07,,09,24,26,,,,,1.6,1.6,1.0*3D
$GPGSV,2,1,08,02,43,088,38,04,42,145,00,05,11,291,00,07,60,043,35*71
$GPGSV,2,2,08,08,02,145,00,09,46,303,47,24,16,178,32,26,18,231,43*77
$PGRME,22.0,M,52.9,M,51.0,M*14
$GPRMC,214226.151,A,4912.586006,N,01635.882153,E,,,261216,,E*45
$GPRMB,A,,,,,,,,,,,,*27
$GPGGA,214226.151,4912.586006,N,01635.882153,E,1,7,0.9,249,M,,,,*23
$GPGSA,A,3,02,,,07,,09,24,26,,,,,1.6,1.6,1.0*3D
$GPGSV,2,1,08,02,43,088,38,04,42,145,00,05,11,291,00,07,60,043,35*71
$GPGSV,2,2,08,08,02,145,00,09,46,303,47,24,16,178,32,26,18,231,43*77
$PGRME,22.0,M,52.9,M,51.0,M*14
$GPRMC,214227.151,A,4912.586533,N,01635.881866,E,,,261216,,E*4B
$GPRMB,A,,,,,,,,,,,,*27
$GPGGA,214227.151,4912.586533,N,01635.881866,E,1,7,0.9,252,M,,,,*27
$GPGSA,A,3,02,,,07,,09,24,26,,,,,1.6,1.6,1.0*3D
$GPGSV,2,1,08,02,43,088,38,04,42,145,00,05,11,291,00,07,60,043,35*71
$GPGSV,2,2,08,08,02,145,00,09,46,303,47,24,16,178,32,26,18,231,43*77
$PGRME,22.0,M,52.9,M,51.0,M*14
$GPRMC,214228.151,A,4912.587061,N,01635.881579,E,,,261216,,E*44
$GPRMB,A,,,,,,,,,,,,*27
$GPGGA,214228.151,4912.587061,N,01635.881579,E,1,7,0.9,252,M,,,,*28
$GPGSA,A,3,02,,,07,,09,24,26,,,,,1.6,1.6,1.0*3D
$GPGSV,2,1,08,02,43,088,38,04,42,145,00,05,11,291,00,07,60,043,35*71
$GPGSV,2,2,08,08,02,145,00,09,46,303,47,24,16,178,32,26,18,231,43*77
$PGRME,22.0,M,52.9,M,51.0,M*14
$GPRMC,214229.151,A,4912.587588,N,01635.881292,E,,,261216,,E*45
$GPRMB,A,,,,,,,,,,,,*27
$GPGGA,214229.151,4912.587588,N,01635.881292,E,1,7,0.9,251,M,,,,*2A
$GPGSA,A,3,02,,,07,,09,24,26,,,,,1.6,1.6,1.0*3D
$GPGSV,2,1,08,02,43,088,38,04,42,145,00,05,11,291,00,07,60,043,35*71
$GPGSV,2,2,08,08,02,145,00,09,46,303,47,24,16,178,32,26,18,231,43*77
$PGRME,22.0,M,52.9,M,51.0,M*14
$GPRMC,214230.151,A,4912.588116,N,01635.881005,E,,,261216,,E*4D
$GPRMB,A,,,,,,,,,,,,*27
$GPGGA,214230.151,4912.588116,N,01635.881005,E,1,7,0.9,250,M,,,,*23
$GPGSA,A,3,02,,,07,,09,24,26,,,,,1.6,1.6,1.0*3D
$GPGSV,2,1,08,02,43,088,38,04,42,145,00,05,11,291,00,07,60,043,35*71
$GPGSV,2,2,08,08,02,145,00,09,46,303,47,24,16,178,32,26,18,231,43*77
$PGRME,22.0,M,52.9,M,51.0,M*14
$GPRMC,214231.151,A,4912.588643,N,01635.880718,E,,,261216,,E*41
$GPRMB,A,,,,,,,,,,,,*27
$GPGGA,214231.151,4912.588643,N,01635.880718,E,1,7,0.9,249,M,,,,*27
$GPGSA,A,3,02,,,07,,09,24,26,,,,,1.6,1.6,1.0*3D
$GPGSV,2,1,08,02,43,088,38,04,42,145,00,05,11,291,00,07,60,043,35*71
$GPGSV,2,2,08,08,02,145,00,09,46,303,47,24,16,178,32,26,18,231,43*77
$PGRME,22.0,M,52.9,M,51.0,M*14
$GPRMC,214232.151,A,4912.589171,N,01635.880431,E,,,261216,,E*4D
$GPRMB,A,,,,,,,,,,,,*27
$GPGGA,214232.151,4912.589171,N,01635.880431,E,1,7,0.9,250,M,,,,*23
$GPGSA,A,3,02,,,07,,09,24,26,,,,,1.6,1.6,1.0*3D
$GPGSV,2,1,08,02,43,088,38,04,42,145,00,05,11,291,00,07,60,043,35*71
$GPGSV,2,2,08,08,02,145,00,09,46,303,47,24,16,178,32,26,18,231,43*77
$PGRME,22.0,M,52.9,M,51.0,M*14
$GPRMC,214233.151,A,4912.589699,N,01635.880144,E,,,261216,,E*4A
$GPRMB,A,,,,,,,,,,,,*27
$GPGGA,214233.151,4912.589699,N,01635.880144,E,1,7,0.9,253,M,,,,*27
$GPGSA,A,3,02,,,07,,09,24,26,,,,,1.6,1.6,1.0*3D
$GPGSV,2,1,08,02,43,088,38,04,42,145,00,05,11,291,00,07,60,043,35*71
$GPGSV,2,2,08,08,02,145,00,09,46,303,47,24,16,178,32,26,18,231,43*77
$PGRME,22.0,M,52.9,M,51.0,M*14
$GPRMC,214234.151,A,4912.590226,N,01635.879857,E,,,261216,,E*48
$GPRMB,A,,,,,,,,,,,,*27
$GPGGA,214234.151,4912.590226,N,01635.879857,E,1,7,0.9,249,M,,,,*2E
$GPGSA,A,3,02,,,07,,09,24,26,,,,,1.6,1.6,1.0*3D
$GPGSV,2,1,08,02,43,088,38,04,42,145,00,05,11,291,00,07,60,043,35*71
$GPGSV,2,2,08,08,02,145,00,09,46,303,47,24,16,178,32,26,18,231,43*77
$PGRME,22.0,M,52.9,M,51.0,M*14
$GPRMC,214235.151,A,4912.590754,N,01635.879570,E,,,261216,,E*41
$GPRMB,A,,,,,,,,,,,,*27
$GPGGA,214235.151,4912.590754,N,01635.879570,E,1,7,0.9,253,M,,,,*2C
$GPGSA,A,3,02,,,07,,09,24,26,,,,,1.6,1.6,1.0*3D
$GPGSV,2,1,08,02,43,088,38,04,42,145,00,05,11,291,00,07,60,043,35*71
$GPGSV,2,2,08,08,02,145,00,09,46,303,47,24,16,178,32,26,18,231,43*77
$PGRME,22.0,M,52.9,M,51.0,M*14
$GPRMC,214236.151,A,4912.591281,N,01635.879283,E,,,261216,,E*45
$GPRMB,A,,,,,,,,,,,,*27
$GPGGA,214236.151,4912.591281,N,01635.879283,E,1,7,0.9,250,M,,,,*2B
$GPGSA,A,3,02,,,07,,09,24,26,,,,,1.6,1.6,1.0*3D
$GPGSV,2,1,08,02,43,088,38,04,42,145,00,05,11,291,00,07,60,043,35*71
$GPGSV,2,2,08,08,02,145,00,09,46,303,47,24,16,178,32,26,18,231,43*77
$PGRME,22.0,M,52.9,M,51.0,M*14
$GPRMC,214237.151,A,4912.591809,N,01635.878995,E,,,261216,,E*43
$GPRMB,A,,,,,,,,,,,,*27
$GPGGA,214237.151,4912.591809,N,01635.878995,E,1,7,0.9,251,M,,,,*2C
$GPGSA,A,3,02,,,07,,09,24,26,,,,,1.6,1.6,1.0*3D
$GPGSV,2,1,08,02,43,088,38,04,42,145,00,05,11,291,00,07,60,043,35*71
$GPGSV,2,2,08,08,02,145,00,09,46,303,47,24,16,178,32,26,18,231,43*77
$PGRME,22.0,M,52.9,M,51.0,M*14
$GPRMC,214238.151,A,4912.592336,N,01635.878708,E,,,261216,,E*42
$GPRMB,A,,,,,,,,,,,,*27
$GPGGA,214238.151,4912.592336,N,01635.878708,E,1,7,0.9,251,M,,,,*2D
$GPGSA,A,3,02,,,07,,09,24,26,,,,,1.6,1.6,1.0*3D
$GPGSV,2,1,08,02,43,088,38,04,42,145,00,05,11,291,00,07,60,043,35*71
$GPGSV,2,2,08,08,02,145,00,09,46,303,47,24,16,178,32,26,18,231,43*77
$PGRME,22.0,M,52.9,M,51.0,M*14
$GPRMC,214239.151,A,4912.592864,N,01635.878421,E,,,261216,,E*47
$GPRMB,A,,,,,,,,,,,,*27
$GPGGA,214239.151,4912.592864,N,01635.878421,E,1,7,0.9,253,M,,,,*2A
$GPGSA,A,3,02,,,07,,09,24,26,,,,,1.6,1.6,1.0*3D
$GPGSV,2,1,08,02,43,088,38,04,42,145,00,05,11,291,00,07,60,043,35*71
$GPGSV,2,2,08,08,02,145,00,09,46,303,47,24,16,178,32,26,18,231,43*77
$PGRME,22.0,M,52.9,M,51.0,M*14
$GPRMC,214240.151,A,4912.593377,N,01635.878110,E,,,261216,,E*46
$GPRMB,A,,,,,,,,,,,,*27
$GPGGA,214240.151,4912.593377,N,01635.878110,E,1,7,0.9,251,M,,,,*29
$GPGSA,A,3,02,,,07,,09,24,26,,,,,1.6,1.6,1.0*3D
$GPGSV,2,1,08,02,43,088,38,04,42,145,00,05,11,291,00,07,60,043,35*71
$GPGSV,2,2,08,08,02,145,00,09,46,303,47,24,16,178,32,26,18,231,43*77
$PGRME,22.0,M,52.9,M,51.0,M*14
$GPRMC,214241.151,A,4912.593871,N,01635.877769,E,,,261216,,E*4D
$GPRMB,A,,,,,,,,,,,,*27
$GPGGA,214241.151,4912.593871,N,01635.877769,E,1,7,0.9,252,M,,,,*21
$GPGSA,A,3,02,,,07,,09,24,26,,,,,1.6,1.6,1.0*3D
$GPGSV,2,1,08,02,43,088,38,04,42,145,00,05,11,291,00,07,60,043,35*71
$GPGSV,2,2,08,08,02,145,00,09,46,303,47,24,16,178,32,26,18,231,43*77
$PGRME,22.0,M,52.9,M,51.0,M*14
$GPRMC,214242.151,A,4912.594365,N,01635.877428,E,,,261216,,E*41
$GPRMB,A,,,,,,,,,,,,*27
$GPGGA,214242.151,4912.594365,N,01635.877428,E,1,7,0.9,250,M,,,,*2F
$GPGSA,A,3,02,,,07,,09,24,26,,,,,1.6,1.6,1.0*3D
$GPGSV,2,1,08,02,43,088,38,04,42,145,00,05,11,291,00,07,60,043,35*71
$GPGSV,2,2,08,08,02,145,00,09,46,303,47,24,16,178,32,26,18,231,43*77
$PGRME,22.0,M,52.9,M,51.0,M*14
$GPRMC,214243.151,A,4912.594859,N,01635.877087,E,,,261216,,E*45
$GPRMB,A,,,,,,,,,,,,*27
$GPGGA,214243.151,4912.594859,N,01635.877087,E,1,7,0.9,249,M,,,,*23
$GPGSA,A,3,02,,,07,,09,24,26,,,,,1.6,1.6,1.0*3D
$GPGSV,2,1,08,02,43,088,38,04,42,145,00,05,11,291,00,07,60,043,35*71
$GPGSV,2,2,08,08,02,145,00,09,46,303,47,24,16,178,32,26,18,231,43*77
$PGRME,22.0,M,52.9,M,51.0,M*14
$GPRMC,214244.151,A,4912.595354,N,01635.876745,E,,,261216,,E*4D
$GPRMB,A,,,,,,,,,,,,*27
$GPGGA,214244.151,4912.595354,N,01635.876745,E,1,7,0.9,251,M,,,,*22
$GPGSA,A,3,02,,,07,,09,24,26,,,,,1.6,1.6,1.0*3D
$GPGSV,2,1,08,02,43,088,38,04,42,145,00,05,11,291,00,07,60,043,35*71
$GPGSV,2,2,08,08,02,145,00,09,46,303,47,24,16,178,32,26,18,231,43*77
$PGRME,22.0,M,52.9,M,51.0,M*14
$GPRMC,214245.151,A,4912.595848,N,01635.876404,E,,,261216,,E*4C
$GPRMB,A,,,,,,,,,,,,*27
$GPGGA,214245.151,4912.595848,N,01635.876404,E,1,7,0.9,252,M,,,,*20
$GPGSA,A,3,02,,,07,,09,24,26,,,,,1.6,1.6,1.0*3D
$GPGSV,2,1,08,02,43,088,38,04,42,145,00,05,11,291,00,07,60,043,35*71
$GPGSV,2,2,08,08,02,145,00,09,46,303,47,24,16,178,32,26,18,231,43*77
$PGRME,22.0,M,52.9,M,51.0,M*14
$GPRMC,214246.151,A,4912.596342,N,01635.876063,E,,,261216,,E*48
$GPRMB,A,,,,,,,,,,,,*27
$GPGGA,214246.151,4912.596342,N,01635.876063,E,1,7,0.9,250,M,,,,*26
$GPGSA,A,3,02,,,07,,09,24,26,,,,,1.6,1.6,1.0*3D
$GPGSV,2,1,08,02,43,088,38,04,42,145,00,05,11,291,00,07,60,043,35*71
$GPGSV,2,2,08,08,02,145,00,09,46,303,47,24,16,178,32,26,18,231,43*77
$PGRME,22.0,M,52.9,M,51.0,M*14
$GPRMC,214247.151,A,4912.596836,N,01635.875722,E,,,261216,,E*40
$GPRMB,A,,,,,,,,,,,,*27
$GPGGA,214247.151,4912.596836,N,01635.875722,E,1,7,0.9,251,M,,,,*2F
$GPGSA,A,3,02,,,07,,09,24,26,,,,,1.6,1.6,1.0*3D
$GPGSV,2,1,08,02,43,088,38,04,42,145,00,05,11,291,00,07,60,043,35*71
$GPGSV,2,2,08,08,02,145,00,09,46,303,47,24,16,178,32,26,18,231,43*77
$PGRME,22.0,M,52.9,M,51.0,M*14
$GPRMC,214248.151,A,4912.597331,N,01635.875380,E,,,261216,,E*4E
$GPRMB,A,,,,,,,,,,,,*27
$GPGGA,214248.151,4912.597331,N,01635.875380,E,1,7,0.9,250,M,,,,*20
$GPGSA,A,3,02,,,07,,09,24,26,,,,,1.6,1.6,1.0*3D
$GPGSV,2,1,08,02,43,088,38,04,42,145,00,05,11,291,00,07,60,043,35*71
$GPGSV,2,2,08,08,02,145,00,09,46,303,47,24,16,178,32,26,18,231,43*77
$PGRME,22.0,M,52.9,M,51.0,M*14
$GPRMC,214249.151,A,4912.597825,N,01635.875039,E,,,261216,,E*40
$GPRMB,A,,,,,,,,,,,,*27
$GPGGA,214249.151,4912.597825,N,01635.875039,E,1,7,0.9,252,M,,,,*2C
$GPGSA,A,3,02,,,07,,09,24,26,,,,,1.6,1.6,1.0*3D
$GPGSV,2,1,08,02,43,088,38,04,42,145,00,05,11,291,00,07,60,043,35*71
$GPGSV,2,2,08,08,02,145,00,09,46,303,47,24,16,178,32,26,18,231,43*77
$PGRME,22.0,M,52.9,M,51.0,M*14
$GPRMC,214250.151,A,4912.598319,N,01635.874698,E,,,261216,,E*4F
$GPRMB,A,,,,,,,,,,,,*27
$GPGGA,214250.151,4912.598319,N,01635.874698,E,1,7,0.9,250,M,,,,*21
$GPGSA,A,3,02,,,07,,09,24,26,,,,,1.6,1.6,1.0*3D
$GPGSV,2,1,08,02,43,088,38,04,42,145,00,05,11,291,00,07,60,043,35*71
$GPGSV,2,2,08,08,02,145,00,09,46,303,47,24,16,178,32,26,18,231,43*77
$PGRME,22.0,M,52.9,M,51.0,M*14
$GPRMC,214251.151,A,4912.598813,N,01635.874357,E,,,261216,,E*49
$GPRMB,A,,,,,,,,,,,,*27
$GPGGA,214251.151,4912.598813,N,01635.874357,E,1,7,0.9,250,M,,,,*27
$GPGSA,A,3,02,,,07,,09,24,26,,,,,1.6,1.6,1.0*3D
$GPGSV,2,1,08,02,43,088,38,04,42,145,00,05,11,291,00,07,60,043,35*71
$GPGSV,2,2,08,08,02,145,00,09,46,303,47,24,16,178,32,26,18,231,43*77
$PGRME,22.0,M,52.9,M,51.0,M*14
$GPRMC,214252.151,A,4912.599307,N,01635.874015,E,,,261216,,E*40
$GPRMB,A,,,,,,,,,,,,*27
$GPGGA,214252.151,4912.599307,N,01635.874015,E,1,7,0.9,251,M,,,,*2F
$GPGSA,A,3,02,,,07,,09,24,26,,,,,1.6,1.6,1.0*3D
$GPGSV,2,1,08,02,43,088,38,04,42,145,00,05,11,291,00,07,60,043,35*71
$GPGSV,2,2,08,08,02,145,00,09,46,303,47,24,16,178,32,26,18,231,43*77
$PGRME,22.0,M,52.9,M,51.0,M*14
$GPRMC,214253.151,A,4912.599802,N,01635.873674,E,,,261216,,E*49
$GPRMB,A,,,,,,,,,,,,*27
$GPGGA,214253.151,4912.599802,N,01635.873674,E,1,7,0.9,249,M,,,,*2F
$GPGSA,A,3,02,,,07,,09,24,26,,,,,1.6,1.6,1.0*3D
$GPGSV,2,1,08,02,43,088,38,04,42,145,00,05,11,291,00,07,60,043,35*71
$GPGSV,2,2,08,08,02,145,00,09,46,303,47,24,16,178,32,26,18,231,43*77
$PGRME,22.0,M,52.9,M,51.0,M*14
$GPRMC,214254.151,A,4912.600296,N,01635.873333,E,,,261216,,E*4C
$GPRMB,A,,,,,,,,,,,,*27
$GPGGA,214254.151,4912.600296,N,01635.873333,E,1,7,0.9,252,M,,,,*20
$GPGSA,A,3,02,,,07,,09,24,26,,,,,1.6,1.6,1.0*3D
$GPGSV,2,1,08,02,43,088,38,04,42,145,00,05,11,291,00,07,60,043,35*71
$GPGSV,2,2,08,08,02,145,00,09,46,303,47,24,16,178,32,26,18,231,43*77
$PGRME,22.0,M,52.9,M,51.0,M*14
$GPRMC,214255.151,A,4912.600790,N,01635.872992,E,,,261216,,E*4E
$GPRMB,A,,,,,,,,,,,,*27
$GPGGA,214255.151,4912.600790,N,01635.872992,E,1,7,0.9,252,M,,,,*22
$GPGSA,A,3,02,,,07,,09,24,26,,,,,1.6,1.6,1.0*3D
$GPGSV,2,1,08,02,43,088,38,04,42,145,00,05,11,291,00,07,60,043,35*71
$GPGSV,2,2,08,08,02,145,00,09,46,303,47,24,16,178,32,26,18,231,43*77
$PGRME,22.0,M,52.9,M,51.0,M*14
$GPRMC,214256.151,A,4912.601284,N,01635.872650,E,,,261216,,E*4D
$GPRMB,A,,,,,,,,,,,,*27
$GPGGA,214256.151,4912.601284,N,01635.872650,E,1,7,0.9,252,M,,,,*21
$GPGSA,A,3,02,,,07,,09,24,26,,,,,1.6,1.6,1.0*3D
$GPGSV,2,1,08,02,43,088,38,04,42,145,00,05,11,291,00,07,60,043,35*71
$GPGSV,2,2,08,08,02,145,00,09,46,303,47,24,16,178,32,26,18,231,43*77
$PGRME,22.0,M,52.9,M,51.0,M*14
$GPRMC,214257.151,A,4912.601779,N,01635.872309,E,,,261216,,E*42
$GPRMB,A,,,,,,,,,,,,*27
$GPGGA,214257.151,4912.601779,N,01635.872309,E,1,7,0.9,251,M,,,,*2D
$GPGSA,A,3,02,,,07,,09,24,26,,,,,1.6,1.6,1.0*3D
$GPGSV,2,1,08,02,43,088,38,04,42,145,00,05,11,291,00,07,60,043,35*71
$GPGSV,2,2,08,08,02,145,00,09,46,303,47,24,16,178,32,26,18,231,43*77
$PGRME,22.0,M,52.9,M,51.0,M*14
$GPRMC,214258.151,A,4912.602273,N,01635.871968,E,,,261216,,E*4F
$GPRMB,A,,,,,,,,,,,,*27
$GPGGA,214258.151,4912.602273,N,01635.871968,E,1,7,0.9,249,M,,,,*29
$GPGSA,A,3,02,,,07,,09,24,26,,,,,1.6,1.6,1.0*3D
$GPGSV,2,1,08,02,43,088,38,04,42,145,00,05,11,291,00,07,60,043,35*71
$GPGSV,2,2,08,08,02,145,00,09,46,303,47,24,16,178,32,26,18,231,43*77
$PGRME,22.0,M,52.9,M,51.0,M*14
$GPRMC,214259.151,A,4912.602767,N,01635.871627,E,,,261216,,E*4A
$GPRMB,A,,,,,,,,,,,,*27
$GPGGA,214259.151,4912.602767,N,01635.871627,E,1,7,0.9,252,M,,,,*26
$GPGSA,A,3,02,,,07,,09,24,26,,,,,1.6,1.6,1.0*3D
$GPGSV,2,1,08,02,43,088,38,04,42,145,00,05,11,291,00,07,60,043,35*71
$GPGSV,2,2,08,08,02,145,00,09,46,303,47,24,16,178,32,26,18,231,43*77
$PGRME,22.0,M,52.9,M,51.0,M*14
$GPRMC,214300.151,A,4912.603261,N,01635.871285,E,,,261216,,E*49
$GPRMB,A,,,,,,,,,,,,*27
$GPGGA,214300.151,4912.603261,N,01635.871285,E,1,7,0.9,250,M,,,,*27
$GPGSA,A,3,02,,,07,,09,24,26,,,,,1.6,1.6,1.0*3D
$GPGSV,2,1,08,02,43,088,38,04,42,145,00,05,11,291,00,07,60,043,35*71
$GPGSV,2,2,08,08,02,145,00,09,46,303,47,24,16,178,32,26,18,231,43*77
$PGRME,22.0,M,52.9,M,51.0,M*14
$GPRMC,214301.151,A,4912.603756,N,01635.870944,E,,,261216,,E*4E
$GPRMB,A,,,,,,,,,,,,*27
$GPGGA,214301.151,4912.603756,N,01635.870944,E,1,7,0.9,251,M,,,,*21
$GPGSA,A,3,02,,,07,,09,24,26,,,,,1.6,1.6,1.0*3D
$GPGSV,2,1,08,02,43,088,38,04,42,145,00,05,11,291,00,07,60,043,35*71
$GPGSV,2,2,08,08,02,145,00,09,46,303,47,24,16,178,32,26,18,231,43*77
$PGRME,22.0,M,52.9,M,51.0,M*14
$GPRMC,214302.151,A,4912.604250,N,01635.870603,E,,,261216,,E*45
$GPRMB,A,,,,,,,,,,,,*27
$GPGGA,214302.151,4912.604250,N,01635.870603,E,1,7,0.9,251,M,,,,*2A
$GPGSA,A,3,02,,,07,,09,24,26,,,,,1.6,1.6,1.0*3D
$GPGSV,2,1,08,02,43,088,38,04,42,145,00,05,11,291,00,07,60,043,35*71
$GPGSV,2,2,08,08,02,145,00,09,46,303,47,24,16,178,32,26,18,231,43*77
$PGRME,22.0,M,52.9,M,51.0,M*14
$GPRMC,214303.151,A,4912.604744,N,01635.870261,E,,,261216,,E*44
$GPRMB,A,,,,,,,,,,,,*27
$GPGGA,214303.151,4912.604744,N,01635.870261,E,1,7,0.9,253,M,,,,*29
$GPGSA,A,3,02,,,07,,09,24,26,,,,,1.6,1.6,1.0*3D
$GPGSV,2,1,08,02,43,088,38,04,42,145,00,05,11,291,00,07,60,043,35*71
$GPGSV,2,2,08,08,02,145,00,09,46,303,47,24,16,178,32,26,18,231,43*77
$PGRME,22.0,M,52.9,M,51.0,M*14
$GPRMC,214304.151,A,4912.605238,N,01635.869920,E,,,261216,,E*4A
$GPRMB,A,,,,,,,,,,,,*27
$GPGGA,214304.151,4912.605238,N,01635.869920,E,1,7,0.9,253,M,,,,*27
$GPGSA,A,3,02,,,07,,09,24,26,,,,,1.6,1.6,1.0*3D
$GPGSV,2,1,08,02,43,088,38,04,42,145,00,05,11,291,00,07,60,043,35*71
$GPGSV,2,2,08,08,02,145,00,09,46,303,47,24,16,178,32,26,18,231,43*77
$PGRME,22.0,M,52.9,M,51.0,M*14
$GPRMC,214305.151,A,4912.605733,N,01635.869579,E,,,261216,,E*45
$GPRMB,A,,,,,,,,,,,,*27
$GPGGA,214305.151,4912.605733,N,01635.869579,E,1,7,0.9,251,M,,,,*2A
$GPGSA,A,3,02,,,07,,09,24,26,,,,,1.6,1.6,1.0*3D
$GPGSV,2,1,08,02,43,088,38,04,42,145,00,05,11,291,00,07,60,043,35*71
$GPGSV,2,2,08,08,02,145,00,09,46,303,47,24,16,178,32,26,18,231,43*77
$PGRME,22.0,M,52.9,M,51.0,M*14
$GPRMC,214306.151,A,4912.606148,N,01635.869146,E,,,261216,,E*47
$GPRMB,A,,,,,,,,,,,,*27
$GPGGA,214306.151,4912.606148,N,01635.869146,E,1,7,0.9,251,M,,,,*28
$GPGSA,A,3,02,,,07,,09,24,26,,,,,1.6,1.6,1.0*3D
$GPGSV,2,1,08,02,43,088,38,04,42,145,00,05,11,291,00,07,60,043,35*71
$GPGSV,2,2,08,08,02,145,00,09,46,303,47,24,16,178,32,26,18,231,43*77
$PGRME,22.0,M,52.9,M,51.0,M*14
$GPRMC,214307.151,A,4912.606559,N,01635.868708,E,,,261216,,E*4F
$GPRMB,A,,,,,,,,,,,,*27
$GPGGA,214307.151,4912.606559,N,01635.868708,E,1,7,0.9,252,M,,,,*23
$GPGSA,A,3,02,,,07,,09,24,26,,,,,1.6,1.6,1.0*3D
$GPGSV,2,1,08,02,43,088,38,04,42,145,00,05,11,291,00,07,60,043,35*71
$GPGSV,2,2,08,08,02,145,00,09,46,303,47,24,16,178,32,26,18,231,43*77
$PGRME,22.0,M,52.9,M,51.0,M*14
$GPRMC,214308.151,A,4912.606969,N,01635.868270,E,,,261216,,E*45
$GPRMB,A,,,,,,,,,,,,*27
$GPGGA,214308.151,4912.606969,N,01635.868270,E,1,7,0.9,250,M,,,,*2B
$GPGSA,A,3,02,,,07,,09,24,26,,,,,1.6,1.6,1.0*3D
$GPGSV,2,1,08,02,43,088,38,04,42,145,00,05,11,291,00,07,60,043,35*71
$GPGSV,2,2,08,08,02,145,00,09,46,303,47,24,16,178,32,26,18,231,43*77
$PGRME,22.0,M,52.9,M,51.0,M*14
$GPRMC,214309.151,A,4912.607380,N,01635.867832,E,,,261216,,E*4B
$GPRMB,A,,,,,,,,,,,,*27
$GPGGA,214309.151,4912.607380,N,01635.867832,E,1,7,0.9,249,M,,,,*2D
$GPGSA,A,3,02,,,07,,09,24,26,,,,,1.6,1.6,1.0*3D
$GPGSV,2,1,08,02,43,088,38,04,42,145,00,05,11,291,00,07,60,043,35*71
$GPGSV,2,2,08,08,02,145,00,09,46,303,47,24,16,178,32,26,18,231,43*77
$PGRME,22.0,M,52.9,M,51.0,M*14
$GPRMC,214310.151,A,4912.607791,N,01635.867394,E,,,261216,,E*40
$GPRMB,A,,,,,,,,,,,,*27
$GPGGA,214310.151,4912.607791,N,01635.867394,E,1,7,0.9,250,M,,,,*2E
$GPGSA,A,3,02,,,07,,09,24,26,,,,,1.6,1.6,1.0*3D
$GPGSV,2,1,08,02,43,088,38,04,42,145,00,05,11,291,00,07,60,043,35*71
$GPGSV,2,2,08,08,02,145,00,09,46,303,47,24,16,178,32,26,18,231,43*77
$PGRME,22.0,M,52.9,M,51.0,M*14
$GPRMC,214311.151,A,4912.608202,N,01635.866955,E,,,261216,,E*47
$GPRMB,A,,,,,,,,,,,,*27
$GPGGA,214311.151,4912.608202,N,01635.866955,E,1,7,0.9,252,M,,,,*2B
$GPGSA,A,3,02,,,07,,09,24,26,,,,,1.6,1.6,1.0*3D
$GPGSV,2,1,08,02,43,088,38,04,42,145,00,05,11,291,00,07,60,043,35*71
$GPGSV,2,2,08,08,02,145,00,09,46,303,47,24,16,178,32,26,18,231,43*77
$PGRME,22.0,M,52.9,M,51.0,M*14
$GPRMC,214312.151,A,4912.608613,N,01635.866517,E,,,261216,,E*4A
$GPRMB,A,,,,,,,,,,,,*27
$GPGGA,214312.151,4912.608613,N,01635.866517,E,1,7,0.9,250,M,,,,*24
$GPGSA,A,3,02,,,07,,09,24,26,,,,,1.6,1.6,1.0*3D
$GPGSV,2,1,08,02,43,088,38,04,42,145,00,05,11,291,00,07,60,043,35*71
$GPGSV,2,2,08,08,02,145,00,09,46,303,47,24,16,178,32,26,18,231,43*77
$PGRME,22.0,M,52.9,M,51.0,M*14
$GPRMC,214313.151,A,4912.609023,N,01635.866079,E,,,261216,,E*42
$GPRMB,A,,,,,,,,,,,,*27
$GPGGA,214313.151,4912.609023,N,01635.866079,E,1,7,0.9,252,M,,,,*2E
$GPGSA,A,3,02,,,07,,09,24,26,,,,,1.6,1.6,1.0*3D
$GPGSV,2,1,08,02,43,088,38,04,42,145,00,05,11,291,00,07,60,043,35*71
$GPGSV,2,2,08,08,02,145,00,09,46,303,47,24,16,178,32,26,18,231,43*77
$PGRME,22.0,M,52.9,M,51.0,M*14
$GPRMC,214314.151,A,4912.609448,N,01635.865657,E,,,261216,,E*45
$GPRMB,A,,,,,,,,,,,,*27
$GPGGA,214314.151,4912.609448,N,01635.865657,E,1,7,0.9,250,M,,,,*2B
$GPGSA,A,3,02,,,07,,09,24,26,,,,,1.6,1.6,1.0*3D
$GPGSV,2,1,08,02,43,088,38,04,42,145,00,05,11,291,00,07,60,043,35*71
$GPGSV,2,2,08,08,02,145,00,09,46,303,47,24,16,178,32,26,18,231,43*77
$PGRME,22.0,M,52.9,M,51.0,M*14
$GPRMC,214315.151,A,4912.609939,N,01635.865310,E,,,261216,,E*49
$GPRMB,A,,,,,,,,,,,,*27
$GPGGA,214315.151,4912.609939,N,01635.865310,E,1,7,0.9,253,M,,,,*24
$GPGSA,A,3,02,,,07,,09,24,26,,,,,1.6,1.6,1.0*3D
$GPGSV,2,1,08,02,43,088,38,04,42,145,00,05,11,291,00,07,60,043,35*71
$GPGSV,2,2,08,08,02,145,00,09,46,303,47,24,16,178,32,26,18,231,43*77
$PGRME,22.0,M,52.9,M,51.0,M*14
$GPRMC,214316.151,A,4912.610429,N,01635.864963,E,,,261216,,E*41
$GPRMB,A,,,,,,,,,,,,*27
$GPGGA,214316.151,4912.610429,N,01635.864963,E,1,7,0.9,253,M,,,,*2C
$GPGSA,A,3,02,,,07,,09,24,26,,,,,1.6,1.6,1.0*3D
$GPGSV,2,1,08,02,43,088,38,04,42,145,00,05,11,291,00,07,60,043,35*71
$GPGSV,2,2,08,08,02,145,00,09,46,303,47,24,16,178,32,26,18,231,43*77
$PGRME,22.0,M,52.9,M,51.0,M*14
$GPRMC,214317.151,A,4912.610919,N,01635.864616,E,,,261216,,E*43
$GPRMB,A,,,,,,,,,,,,*27
$GPGGA,214317.151,4912.610919,N,01635.864616,E,1,7,0.9,253,M,,,,*2E
$GPGSA,A,3,02,,,07,,09,24,26,,,,,1.6,1.6,1.0*3D
$GPGSV,2,1,08,02,43,088,38,04,42,145,00,05,11,291,00,07,60,043,35*71
$GPGSV,2,2,08,08,02,145,00,09,46,303,47,24,16,178,32,26,18,231,43*77
$PGRME,22.0,M,52.9,M,51.0,M*14
$GPRMC,214318.151,A,4912.611409,N,01635.864269,E,,,261216,,E*4D
$GPRMB,A,,,,,,,,,,,,*27
$GPGGA,214318.151,4912.611409,N,01635.864269,E,1,7,0.9,252,M,,,,*21
$GPGSA,A,3,02,,,07,,09,24,26,,,,,1.6,1.6,1.0*3D
$GPGSV,2,1,08,02,43,088,38,04,42,145,00,05,11,291,00,07,60,043,35*71
$GPGSV,2,2,08,08,02,145,00,09,46,303,47,24,16,178,32,26,18,231,43*77
$PGRME,22.0,M,52.9,M,51.0,M*14
$GPRMC,214319.151,A,4912.611899,N,01635.863922,E,,,261216,,E*4A
$GPRMB,A,,,,,,,,,,,,*27
$GPGGA,214319.151,4912.611899,N,01635.863922,E,1,7,0.9,251,M,,,,*25
$GPGSA,A,3,02,,,07,,09,24,26,,,,,1.6,1.6,1.0*3D
$GPGSV,2,1,08,02,43,088,38,04,42,145,00,05,11,291,00,07,60,043,35*71
$GPGSV,2,2,08,08,02,145,00,09,46,303,47,24,16,178,32,26,18,231,43*77
$PGRME,22.0,M,52.9,M,51.0,M*14
$GPRMC,214320.151,A,4912.612390,N,01635.863575,E,,,261216,,E*4F
$GPRMB,A,,,,,,,,,,,,*27
$GPGGA,214320.151,4912.612390,N,01635.863575,E,1,7,0.9,252,M,,,,*23
$GPGSA,A,3,02,,,07,,09,24,26,,,,,1.6,1.6,1.0*3D
$GPGSV,2,1,08,02,43,088,38,04,42,145,00,05,11,291,00,07,60,043,35*71
$GPGSV,2,2,08,08,02,145,00,09,46,303,47,24,16,178,32,26,18,231,43*77
$PGRME,22.0,M,52.9,M,51.0,M*14
$GPRMC,214321.151,A,4912.612880,N,01635.863228,E,,,261216,,E*4B
$GPRMB,A,,,,,,,,,,,,*27
$GPGGA,214321.151,4912.612880,N,01635.863228,E,1,7,0.9,250,M,,,,*25
$GPGSA,A,3,02,,,07,,09,24,26,,,,,1.6,1.6,1.0*3D
$GPGSV,2,1,08,02,43,088,38,04,42,145,00,05,11,291,00,07,60,043,35*71
$GPGSV,2,2,08,08,02,145,00,09,46,303,47,24,16,178,32,26,18,231,43*77
$PGRME,22.0,M,52.9,M,51.0,M*14
$GPRMC,214322.151,A,4912.613370,N,01635.862881,E,,,261216,,E*45
$GPRMB,A,,,,,,,,,,,,*27
$GPGGA,214322.151,4912.613370,N,01635.862881,E,1,7,0.9,250,M,,,,*2B
$GPGSA,A,3,02,,,07,,09,24,26,,,,,1.6,1.6,1.0*3D
$GPGSV,2,1,08,02,43,088,38,04,42,145,00,05,11,291,00,07,60,043,35*71
$GPGSV,2,2,08,08,02,145,00,09,46,303,47,24,16,178,32,26,18,231,43*77
$PGRME,22.0,M,52.9,M,51.0,M*14
$GPRMC,214323.151,A,4912.613860,N,01635.862534,E,,,261216,,E*4D
$GPRMB,A,,,,,,,,,,,,*27
$GPGGA,214323.151,4912.613860,N,01635.862534,E,1,7,0.9,251,M,,,,*22
$GPGSA,A,3,02,,,07,,09,24,26,,,,,1.6,1.6,1.0*3D
$GPGSV,2,1,08,02,43,088,38,04,42,145,00,05,11,291,00,07,60,043,35*71
$GPGSV,2,2,08,08,02,145,00,09,46,303,47,24,16,178,32,26,18,231,43*77
$PGRME,22.0,M,52.9,M,51.0,M*14
$GPRMC,214324.151,A,4912.614350,N,01635.862187,E,,,261216,,E*49
$GPRMB,A,,,,,,,,,,,,*27
$GPGGA,214324.151,4912.614350,N,01635.862187,E,1,7,0.9,249,M,,,,*2F
$GPGSA,A,3,02,,,07,,09,24,26,,,,,1.6,1.6,1.0*3D
$GPGSV,2,1,08,02,43,088,38,04,42,145,00,05,11,291,00,07,60,043,35*71
$GPGSV,2,2,08,08,02,145,00,09,46,303,47,24,16,178,32,26,18,231,43*77
$PGRME,22.0,M,52.9,M,51.0,M*14
$GPRMC,214325.151,A,4912.614840,N,01635.861840,E,,,261216,,E*43
$GPRMB,A,,,,,,,,,,,,*27
$GPGGA,214325.151,4912.614840,N,01635.861840,E,1,7,0.9,249,M,,,,*25
$GPGSA,A,3,02,,,07,,09,24,26,,,,,1.6,1.6,1.0*3D
$GPGSV,2,1,08,02,43,088,38,04,42,145,00,05,11,291,00,07,60,043,35*71
$GPGSV,2,2,08,08,02,145,00,09,46,303,47,24,16,178,32,26,18,231,43*77
$PGRME,22.0,M,52.9,M,51.0,M*14
$GPRMC,214326.151,A,4912.615331,N,01635.861493,E,,,261216,,E*4E
$GPRMB,A,,,,,,,,,,,,*27
$GPGGA,214326.151,4912.615331,N,01635.861493,E,1,7,0.9,250,M,,,,*20
$GPGSA,A,3,02,,,07,,09,24,26,,,,,1.6,1.6,1.0*3D
$GPGSV,2,1,08,02,43,088,38,04,42,145,00,05,11,291,00,07,60,043,35*71
$GPGSV,2,2,08,08,02,145,00,09,46,303,47,24,16,178,32,26,18,231,43*77
$PGRME,22.0,M,52.9,M,51.0,M*14
$GPRMC,214327.151,A,4912.615821,N,01635.861146,E,,,261216,,E*48
$GPRMB,A,,,,,,,,,,,,*27
$GPGGA,214327.151,4912.615821,N,01635.861146,E,1,7,0.9,253,M,,,,*25
$GPGSA,A,3,02,,,07,,09,24,26,,,,,1.6,1.6,1.0*3D
$GPGSV,2,1,08,02,43,088,38,04,42,145,00,05,11,291,00,07,60,043,35*71
$GPGSV,2,2,08,08,02,145,00,09,46,303,47,24,16,178,32,26,18,231,43*77
$PGRME,22.0,M,52.9,M,51.0,M*14
$GPRMC,214328.151,A,4912.616311,N,01635.860799,E,,,261216,,E*49
$GPRMB,A,,,,,,,,,,,,*27
$GPGGA,214328.151,4912.616311,N,01635.860799,E,1,7,0.9,253,M,,,,*24
$GPGSA,A,3,02,,,07,,09,24,26,,,,,1.6,1.6,1.0*3D
$GPGSV,2,1,08,02,43,088,38,04,42,145,00,05,11,291,00,07,60,043,35*71
$GPGSV,2,2,08,08,02,145,00,09,46,303,47,24,16,178,32,26,18,231,43*77
$PGRME,22.0,M,52.9,M,51.0,M*14
$GPRMC,214329.151,A,4912.616801,N,01635.860451,E,,,261216,,E*45
$GPRMB,A,,,,,,,,,,,,*27
$GPGGA,214329.151,4912.616801,N,01635.860451,E,1,7,0.9,249,M,,,,*23
$GPGSA,A,3,02,,,07,,09,24,26,,,,,1.6,1.6,1.0*3D
$GPGSV,2,1,08,02,43,088,38,04,42,145,00,05,11,291,00,07,60,043,35*71
$GPGSV,2,2,08,08,02,145,00,09,46,303,47,24,16,178,32,26,18,231,43*77
$PGRME,22.0,M,52.9,M,51.0,M*14
$GPRMC,214330.151,A,4912.617291,N,01635.860104,E,,,261216,,E*4A
$GPRMB,A,,,,,,,,,,,,*27
$GPGGA,214330.151,4912.617291,N,01635.860104,E,1,7,0.9,253,M,,,,*27
$GPGSA,A,3,02,,,07,,09,24,26,,,,,1.6,1.6,1.0*3D
$GPGSV,2,1,08,02,43,088,38,04,42,145,00,05,11,291,00,07,60,043,35*71
$GPGSV,2,2,08,08,02,145,00,09,46,303,47,24,16,178,32,26,18,231,43*77
$PGRME,22.0,M,52.9,M,51.0,M*14
$GPRMC,214331.151,A,4912.617663,N,01635.859667,E,,,261216,,E*4A
$GPRMB,A,,,,,,,,,,,,*27
$GPGGA,214331.151,4912.617663,N,01635.859667,E,1,7,0.9,250,M,,,,*24
$GPGSA,A,3,02,,,07,,09,24,26,,,,,1.6,1.6,1.0*3D
$GPGSV,2,1,08,02,43,088,38,04,42,145,00,05,11,291,00,07,60,043,35*71
$GPGSV,2,2,08,08,02,145,00,09,46,303,47,24,16,178,32,26,18,231,43*77
$PGRME,22.0,M,52.9,M,51.0,M*14
$GPRMC,214332.151,A,4912.617864,N,01635.859102,E,,,261216,,E*44
$GPRMB,A,,,,,,,,,,,,*27
$GPGGA,214332.151,4912.617864,N,01635.859102,E,1,7,0.9,249,M,,,,*22
$GPGSA,A,3,02,,,07,,09,24,26,,,,,1.6,1.6,1.0*3D
$GPGSV,2,1,08,02,43,088,38,04,42,145,00,05,11,291,00,07,60,043,35*71
$GPGSV,2,2,08,08,02,145,00,09,46,303,47,24,16,178,32,26,18,231,43*77
$PGRME,22.0,M,52.9,M,51.0,M*14
$GPRMC,214333.151,A,4912.618066,N,01635.858536,E,,,261216,,E*42
$GPRMB,A,,,,,,,,,,,,*27
$GPGGA,214333.151,4912.618066,N,01635.858536,E,1,7,0.9,252,M,,,,*2E
$GPGSA,A,3,02,,,07,,09,24,26,,,,,1.6,1.6,1.0*3D
$GPGSV,2,1,08,02,43,088,38,04,42,145,00,05,11,291,00,07,60,043,35*71
$GPGSV,2,2,08,08,02,145,00,09,46,303,47,24,16,178,32,26,18,231,43*77
$PGRME,22.0,M,52.9,M,51.0,M*14
$GPRMC,214334.151,A,4912.618267,N,01635.857970,E,,,261216,,E*47
$GPRMB,A,,,,,,,,,,,,*27
$GPGGA,214334.151,4912.618267,N,01635.857970,E,1,7,0.9,252,M,,,,*2B
$GPGSA,A,3,02,,,07,,09,24,26,,,,,1.6,1.6,1.0*3D
$GPGSV,2,1,08,02,43,088,38,04,42,145,00,05,11,291,00,07,60,043,35*71
$GPGSV,2,2,08,08,02,145,00,09,46,303,47,24,16,178,32,26,18,231,43*77
$PGRME,22.0,M,52.9,M,51.0,M*14
$GPRMC,214335.151,A,4912.618468,N,01635.857404,E,,,261216,,E*41
$GPRMB,A,,,,,,,,,,,,*27
$GPGGA,214335.151,4912.618468,N,01635.857404,E,1,7,0.9,252,M,,,,*2D
$GPGSA,A,3,02,,,07,,09,24,26,,,,,1.6,1.6,1.0*3D
$GPGSV,2,1,08,02,43,088,38,04,42,145,00,05,11,291,00,07,60,043,35*71
$GPGSV,2,2,08,08,02,145,00,09,46,303,47,24,16,178,32,26,18,231,43*77
$PGRME,22.0,M,52.9,M,51.0,M*14
$GPRMC,214336.151,A,4912.618670,N,01635.856838,E,,,261216,,E*4B
$GPRMB,A,,,,,,,,,,,,*27
$GPGGA,214336.151,4912.618670,N,01635.856838,E,1,7,0.9,250,M,,,,*25
$GPGSA,A,3,02,,,07,,09,24,26,,,,,1.6,1.6,1.0*3D
$GPGSV,2,1,08,02,43,088,38,04,42,145,00,05,11,291,00,07,60,043,35*71
$GPGSV,2,2,08,08,02,145,00,09,46,303,47,24,16,178,32,26,18,231,43*77
$PGRME,22.0,M,52.9,M,51.0,M*14
$GPRMC,214337.151,A,4912.618920,N,01635.856312,E,,,261216,,E*43
$GPRMB,A,,,,,,,,,,,,*27
$GPGGA,214337.151,4912.618920,N,01635.856312,E,1,7,0.9,253,M,,,,*2E
$GPGSA,A,3,02,,,07,,09,24,26,,,,,1.6,1.6,1.0*3D
$GPGSV,2,1,08,02,43,088,38,04,42,145,00,05,11,291,00,07,60,043,35*71
$GPGSV,2,2,08,08,02,145,00,09,46,303,47,24,16,178,32,26,18,231,43*77
$PGRME,22.0,M,52.9,M,51.0,M*14
$GPRMC,214338.151,A,4912.619434,N,01635.856002,E,,,261216,,E*47
$GPRMB,A,,,,,,,,,,,,*27
$GPGGA,214338.151,4912.619434,N,01635.856002,E,1,7,0.9,252,M,,,,*2B
$GPGSA,A,3,02,,,07,,09,24,26,,,,,1.6,1.6,1.0*3D
$GPGSV,2,1,08,02,43,088,38,04,42,145,00,05,11,291,00,07,60,043,35*71
$GPGSV,2,2,08,08,02,145,00,09,46,303,47,24,16,178,32,26,18,231,43*77
$PGRME,22.0,M,52.9,M,51.0,M*14
$GPRMC,214339.151,A,4912.619948,N,01635.855692,E,,,261216,,E*4C
$GPRMB,A,,,,,,,,,,,,*27
$GPGGA,214339.151,4912.619948,N,01635.855692,E,1,7,0.9,253,M,,,,*21
$GPGSA,A,3,02,,,07,,09,24,26,,,,,1.6,1.6,1.0*3D
$GPGSV,2,1,08,02,43,088,38,04,42,145,00,05,11,291,00,07,60,043,35*71
$GPGSV,2,2,08,08,02,145,00,09,46,303,47,24,16,178,32,26,18,231,43*77
$PGRME,22.0,M,52.9,M,51.0,M*14
$GPRMC,214340.151,A,4912.620463,N,01635.855382,E,,,261216,,E*48
$GPRMB,A,,,,,,,,,,,,*27
$GPGGA,214340.151,4912.620463,N,01635.855382,E,1,7,0.9,251,M,,,,*27
$GPGSA,A,3,02,,,07,,09,24,26,,,,,1.6,1.6,1.0*3D
$GPGSV,2,1,08,02,43,088,38,04,42,145,00,05,11,291,00,07,60,043,35*71
$GPGSV,2,2,08,08,02,145,00,09,46,303,47,24,16,178,32,26,18,231,43*77
$PGRME,22.0,M,52.9,M,51.0,M*14
$GPRMC,214341.151,A,4912.620977,N,01635.855072,E,,,261216,,E*4D
$GPRMB,A,,,,,,,,,,,,*27
$GPGGA,214341.151,4912.620977,N,01635.855072,E,1,7,0.9,251,M,,,,*22
$GPGSA,A,3,02,,,07,,09,24,26,,,,,1.6,1.6,1.0*3D
$GPGSV,2,1,08,02,43,088,38,04,42,145,00,05,11,291,00,07,60,043,35*71
$GPGSV,2,2,08,08,02,145,00,09,46,303,47,24,16,178,32,26,18,231,43*77
$PGRME,22.0,M,52.9,M,51.0,M*14
$GPRMC,214342.151,A,4912.621492,N,01635.854762,E,,,261216,,E*4E
$GPRMB,A,,,,,,,,,,,,*27
$GPGGA,214342.151,4912.621492,N,01635.854762,E,1,7,0.9,250,M,,,,*20
$GPGSA,A,3,02,,,07,,09,24,26,,,,,1.6,1.6,1.0*3D
$GPGSV,2,1,08,02,43,088,38,04,42,145,00,05,11,291,00,07,60,043,35*71
$GPGSV,2,2,08,08,02,145,00,09,46,303,47,24,16,178,32,26,18,231,43*77
$PGRME,22.0,M,52.9,M,51.0,M*14
$GPRMC,214343.151,A,4912.622006,N,01635.854452,E,,,261216,,E*45
$GPRMB,A,,,,,,,,,,,,*27
$GPGGA,214343.151,4912.622006,N,01635.854452,E,1,7,0.9,249,M,,,,*23
$GPGSA,A,3,02,,,07,,09,24,26,,,,,1.6,1.6,1.0*3D
$GPGSV,2,1,08,02,43,088,38,04,42,145,00,05,11,291,00,07,60,043,35*71
